id,ident,type,name,latitude_deg,longitude_deg,elevation_ft,continent,iso_country,iso_region,municipality,scheduled_service,gps_code,iata_code,local_code,home_link,wikipedia_link,keywords,full_country_name
3,AGGH,large_airport,Honiara International Airport,-9.428,160.054993,28.0,OC,SB,SB-GU,Honiara,yes,AGGH,HIR,,,https://en.wikipedia.org/wiki/Honiara_International_Airport,Henderson Field,Solomon Islands
4,AGGM,medium_airport,Munda Airport,-8.32797,157.263,10.0,OC,SB,SB-WE,Munda,yes,AGGM,MUA,,,https://en.wikipedia.org/wiki/Munda_Airport,,Solomon Islands
312371,AHJ,medium_airport,Hongyuan Airport,32.53154,102.35224,11600.0,AS,CN,CN-51,Ngawa (Hongyuan),no,ZUHY,AHJ,,,https://en.wikipedia.org/wiki/Hongyuan_Airport,Aba,China
8,ANYN,medium_airport,Nauru International Airport,-0.547458,166.919006,22.0,OC,NR,NR-14,Yaren District,yes,ANYN,INU,,,https://en.wikipedia.org/wiki/Nauru_International_Airport,ANAU,Nauru
336951,AQBC,medium_airport,Boulder Clay Runway,-74.739373,164.03539,672.0,AN,AQ,AQ-U-A,Zucchelli Station,no,AQBC,,,,https://en.wikipedia.org/wiki/Zucchelli_Station,,Antarctica
336953,AT03,medium_airport,Concordia Skyway,-75.103278,123.35825,10725.0,AN,AQ,AQ-U-A,Concordia Station,no,AT03,,,,https://en.wikipedia.org/wiki/Concordia_Station,,Antarctica
336959,AT28,medium_airport,Vostok Skiway,-78.466139,106.84825,11447.0,AN,AQ,AQ-U-A,Vostok Station,no,AT28,,,,https://en.wikipedia.org/wiki/Vostok_Station,,Antarctica
314558,AXF,medium_airport,Alxa Left Banner Bayanhot Airport,38.74831,105.58858,4560.0,AS,CN,CN-15,Bayanhot,yes,ZBAL,AXF,,,https://en.wikipedia.org/wiki/Alxa_Left_Banner_Bayanhot_Airport,,China
53,AYBK,medium_airport,Buka Airport,-5.422319889068604,154.67300415039062,11.0,OC,PG,PG-NSB,Buka Island,yes,AYBK,BUA,,,https://en.wikipedia.org/wiki/Buka_Airport,,Papua New Guinea
54,AYCH,medium_airport,Chimbu Airport,-6.024290084838867,144.9709930419922,4974.0,OC,PG,PG-CPK,Kundiawa,yes,AYCH,CMU,,,https://en.wikipedia.org/wiki/Chimbu_Airport,,Papua New Guinea
55,AYDU,medium_airport,Daru Airport,-9.08676,143.207993,20.0,OC,PG,PG-WPD,Daru,yes,AYDU,DAU,,,https://en.wikipedia.org/wiki/Daru_Airport,,Papua New Guinea
56,AYGA,medium_airport,Goroka Airport,-6.081689834590001,145.391998291,5282.0,OC,PG,PG-EHG,Goronka,yes,AYGA,GKA,,,https://en.wikipedia.org/wiki/Goroka_Airport,,Papua New Guinea
57,AYGN,medium_airport,Gurney Airport,-10.3114995956,150.333999634,88.0,OC,PG,PG-MBA,Gurney,yes,AYGN,GUR,,,https://en.wikipedia.org/wiki/Gurney_Airport,,Papua New Guinea
58,AYGR,medium_airport,Girua Airport,-8.80453968048,148.309005737,311.0,OC,PG,PG-NPP,Popondetta,yes,AYGR,PNP,,,https://en.wikipedia.org/wiki/Girua_Airport,,Papua New Guinea
59,AYHK,medium_airport,Hoskins Airport,-5.463846,150.407327,66.0,OC,PG,PG-WBK,Kimbe,yes,AYHK,HKN,,,https://en.wikipedia.org/wiki/Hoskins_Airport,,Papua New Guinea
60,AYKM,medium_airport,Kerema Airport,-7.96361017227,145.770996094,10.0,OC,PG,PG-GPK,Kerema,yes,AYKM,KMA,,,https://en.wikipedia.org/wiki/Kerema_Airport,,Papua New Guinea
61,AYKV,medium_airport,Kavieng Airport,-2.57940006256,150.807998657,7.0,OC,PG,PG-NIK,Kavieng,yes,AYKV,KVG,,,https://en.wikipedia.org/wiki/Kavieng_Airport,,Papua New Guinea
62,AYMD,medium_airport,Madang Airport,-5.20707988739,145.789001465,20.0,OC,PG,PG-MPM,Madang,yes,AYMD,MAG,,,https://en.wikipedia.org/wiki/Madang_Airport,,Papua New Guinea
63,AYMH,medium_airport,Mount Hagen Kagamuga Airport,-5.828212,144.299412,5388.0,OC,PG,PG-WHM,Mount Hagen,yes,AYMH,HGU,,,https://en.wikipedia.org/wiki/Mount_Hagen_Airport,,Papua New Guinea
64,AYMN,medium_airport,Mendi Airport,-6.14774,143.656998,5680.0,OC,PG,PG-SHM,Mendi,yes,AYMN,MDU,,,https://en.wikipedia.org/wiki/Mendi_Airport,,Papua New Guinea
65,AYMO,medium_airport,Momote Airport,-2.06189,147.423996,12.0,OC,PG,PG-MRL,Manus Island,yes,AYMO,MAS,,,https://en.wikipedia.org/wiki/Momote_Airport,,Papua New Guinea
66,AYNZ,medium_airport,Nadzab Airport,-6.569803,146.725977,239.0,OC,PG,PG-MPL,Lae,yes,AYNZ,LAE,,,https://en.wikipedia.org/wiki/Lae_Nadzab_Airport,MFO,Papua New Guinea
67,AYPY,large_airport,Port Moresby Jacksons International Airport,-9.44338035583496,147.22000122070312,146.0,OC,PG,PG-NCD,Port Moresby,yes,AYPY,POM,,,https://en.wikipedia.org/wiki/Jacksons_International_Airport,,Papua New Guinea
68,AYTK,medium_airport,Tokua Airport,-4.34046,152.380005,49.0,OC,PG,PG-EBR,Kokopo,yes,AYTK,RAB,,,https://en.wikipedia.org/wiki/Rabaul_Airport,,Papua New Guinea
69,AYVN,medium_airport,Vanimo Airport,-2.6926,141.3028,10.0,OC,PG,PG-SAN,Vanimo,yes,AYVN,VAI,,,https://en.wikipedia.org/wiki/Vanimo_Airport,,Papua New Guinea
70,AYWD,medium_airport,Wapenamanda Airport,-5.635293,143.892231,5889.0,OC,PG,PG-EPW,Wapenamanda,yes,AYWD,WBM,,,https://en.wikipedia.org/wiki/Wapenamanda_Airport,,Papua New Guinea
71,AYWK,medium_airport,Wewak International Airport,-3.58383011818,143.669006348,19.0,OC,PG,PG-ESW,Wewak,yes,AYWK,WWK,,,https://en.wikipedia.org/wiki/Wewak_International_Airport,,Papua New Guinea
44941,AZ-0001,medium_airport,Zabrat Airport,40.4955422161,49.9768066406,36.0,AS,AZ,AZ-BA,Baku,no,UBTT,ZXT,,,https://en.wikipedia.org/wiki/Zabrat_Airport,,Azerbaijan
44954,AZ-0013,medium_airport,Sitalchay Airbase,40.807313,49.431481,-46.0,AS,AZ,AZ-XIZ,Sitalchay,no,,,,,,,Azerbaijan
44962,AZ-0021,medium_airport,Qizilagach Air Base,39.006162,48.806312,,AS,AZ,AZ-MAS,Qizilagach,no,,,,,,,Azerbaijan
27301,BCW,medium_airport,Benguera Island Airport,-21.8533,35.438301,,AF,MZ,MZ-I,Benguera Island,no,,BCW,,,https://en.wikipedia.org/wiki/Benguera_Island_Airport,,Mozambique
111,BG-JAM,medium_airport,Bezmer Air Base,42.454899,26.3522,509.0,EU,BG,BG-28,Bezmer,no,LBIA,JAM,,,https://en.wikipedia.org/wiki/Bezmer_Airbase,LB44,Bulgaria
31697,BGAA,medium_airport,Aasiaat Airport,68.721802,-52.784698,74.0,,GL,GL-QK,Aasiaat,yes,BGAA,JEG,,http://airgreenland.com/om_rejsen/efter_rejsen/din_destination_/aasiaat/,https://en.wikipedia.org/wiki/Aasiaat_Airport,"Mittarfik Aasiaat, Aasiaat Lufthavn, Egedesminde",Greenland
113,BGBW,medium_airport,Narsarsuaq Airport,61.1605,-45.425999,112.0,,GL,GL-KU,Narsarsuaq,yes,BGBW,UAK,,,https://en.wikipedia.org/wiki/Narsarsuaq_Airport,Mittarfik Narsarsuaq,Greenland
114,BGGH,medium_airport,Nuuk Airport,64.193022,-51.676512,283.0,,GL,GL-SE,Nuuk,yes,BGGH,GOH,,,https://en.wikipedia.org/wiki/Nuuk_Airport,"Godthåb, Nuussuaq, Mittarfik Nuuk",Greenland
31786,BGKK,medium_airport,Kulusuk Airport,65.573601,-37.1236,117.0,,GL,GL-SE,Kulusuk,yes,BGKK,KUS,,,https://en.wikipedia.org/wiki/Kulusuk_Airport,"Kap Dan, BGKD",Greenland
115,BGSF,medium_airport,Kangerlussuaq Airport,67.010446,-50.715294,165.0,,GL,GL-QA,Kangerlussuaq,yes,BGSF,SFJ,,,https://en.wikipedia.org/wiki/Kangerlussuaq_Airport,"Bluie West 8, Sondrestrom Air Base, Sondrestromfjord Air Base",Greenland
31700,BGSS,medium_airport,Sisimiut Airport,66.951302,-53.729301,33.0,,GL,GL-QA,Sisimiut,yes,BGSS,JHS,,https://www.mit.gl/en/todays-flights/airports/sisimiut-airport/,https://en.wikipedia.org/wiki/Sisimiut_Airport,,Greenland
116,BGTL,medium_airport,Pituffik Space Base,76.531197,-68.703201,251.0,,GL,GL-AV,Pituffik,yes,BGTL,THU,,,https://en.wikipedia.org/wiki/Pituffik_Space_Base,Thule Air Base,Greenland
117,BIAR,medium_airport,Akureyri Airport,65.66000366210938,-18.07270050048828,6.0,EU,IS,IS-6,Akureyri,yes,BIAR,AEY,,,https://en.wikipedia.org/wiki/Akureyri_Airport,,Iceland
119,BIEG,medium_airport,Egilsstaðir Airport,65.2833023071289,-14.401399612426758,76.0,EU,IS,IS-7,Egilsstaðir,yes,BIEG,EGS,,,https://en.wikipedia.org/wiki/Egilssta%C3%B0ir_Airport,,Iceland
120,BIHN,medium_airport,Hornafjörður Airport,64.295601,-15.2272,24.0,EU,IS,IS-8,Höfn,yes,BIHN,HFN,,,https://en.wikipedia.org/wiki/Hornafj%C3%B6r%C3%B0ur_Airport,,Iceland
121,BIHU,medium_airport,Húsavík Airport,65.952301,-17.426001,48.0,EU,IS,IS-6,Húsavík,yes,BIHU,HZK,,,https://en.wikipedia.org/wiki/H%C3%BAsav%C3%ADk_Airport,,Iceland
122,BIIS,medium_airport,Ísafjörður Airport,66.05809783935547,-23.135299682617188,8.0,EU,IS,IS-4,Ísafjörður,yes,BIIS,IFJ,,,https://en.wikipedia.org/wiki/%C3%8Dsafj%C3%B6r%C3%B0ur_Airport,,Iceland
123,BIKF,large_airport,Keflavik International Airport,63.985001,-22.6056,171.0,EU,IS,IS-2,Reykjavík,yes,BIKF,KEF,,https://www.isavia.is/en/keflavik-airport,https://en.wikipedia.org/wiki/Keflav%C3%ADk_International_Airport,"Keflavik Naval Air Station,REK",Iceland
125,BIRK,medium_airport,Reykjavik Airport,64.1299972534,-21.9405994415,48.0,EU,IS,IS-1,Reykjavik,yes,BIRK,RKV,,,https://en.wikipedia.org/wiki/Reykjav%C3%ADk_Airport,REK,Iceland
126,BISI,medium_airport,Siglufjörður Airport,66.137847,-18.908157,10.0,EU,IS,IS-6,Siglufjörður,no,BISI,SIJ,,,https://en.wikipedia.org/wiki/Siglufj%C3%B6r%C3%B0ur_Airport,,Iceland
128,BIVM,medium_airport,Vestmannaeyjar Airport,63.42430114746094,-20.27890014648437,326.0,EU,IS,IS-8,Vestmannaeyjar,no,BIVM,VEY,,,https://en.wikipedia.org/wiki/Vestmannaeyjar_Airport,,Iceland
4614,BKPR,medium_airport,Priština Adem Jashari International Airport,42.5728,21.035801,1789.0,EU,XK,XK-01,Prishtina,yes,BKPR,PRN,,http://www.airportpristina.com/,https://en.wikipedia.org/wiki/Pristina_International_Airport,"LYPR, Pristina, Slatina Air Base",
333222,BR-0569,medium_airport,Glauber de Andrade Rocha Airport,-14.907885,-40.914804,2940.0,SA,BR,BR-BA,Vitória da Conquista,yes,SBVC,VDC,BA0005,,https://en.wikipedia.org/wiki/Glauber_Rocha_Airport,SSVC,Brazil
34946,BY-0001,medium_airport,Orsha Airport - Balbasovo Air Base,54.439999,30.2967,620.0,EU,BY,BY-VI,Orsha,no,UMIO,TXC,,,https://en.wikipedia.org/wiki/Balbasovo,"Balbasava, Bolbasovo, Orsha Southwest",Belarus
34952,BY-0003,medium_airport,Bobrovichi Air Base,52.27830123901367,29.36000061035156,440.0,EU,BY,BY-HO,Kalinovichi,no,,,,,https://en.wikipedia.org/wiki/Bobrovichi,,Belarus
44363,BY-0006,medium_airport,Osovtsy Air Base,52.5569992065,24.8840007782,,EU,BY,BY-BR,Byaroza,no,UMMO,,,,,"Byaroza Air Base, Beryoza Air Base, Аэродром Осовцы, Аэродром Бяроза, Аэродром Берёза, УММО",Belarus
42216,BZ-BGK,medium_airport,Big Creek Airport,16.519369,-88.407913,22.0,,BZ,BZ-SC,Big Creek,yes,MZBG,BGK,,,https://en.wikipedia.org/wiki/Big_Creek_Airport_(Belize),,Belize
30861,BZ-CUK,medium_airport,Caye Caulker Airport,17.735015,-88.032862,2.0,,BZ,BZ-BZ,Caye Caulker,yes,MZCK,CUK,,,https://en.wikipedia.org/wiki/Caye_Caulker_Airport,,Belize
30867,BZ-CYC,medium_airport,Caye Chapel Airport,17.683792,-88.044985,3.0,,BZ,BZ-BZ,Caye Chapel,yes,MZCP,CYC,,,https://en.wikipedia.org/wiki/Caye_Chapel_Airport,,Belize
42209,BZ-CZH,medium_airport,Corozal Municipal Airport,18.3822,-88.411903,40.0,,BZ,BZ-CZL,Corozal,yes,MZCZ,CZH,,,https://en.wikipedia.org/wiki/Corozal_Airport,Ranchito Airport,Belize
42207,BZ-DGA,medium_airport,Dangriga Airport,16.98251,-88.230988,508.0,,BZ,BZ-SC,Dangriga,yes,MZPB,DGA,,,https://en.wikipedia.org/wiki/Dangriga_Airport,Stann Creek Airport,Belize
42217,BZ-PLJ,medium_airport,Placencia Airport,16.536957,-88.361511,3.0,,BZ,BZ-SC,Placencia,yes,MZPL,PLJ,PLJ,,https://en.wikipedia.org/wiki/Placencia_Airport,,Belize
35305,BZ-PND,medium_airport,Punta Gorda Airport,16.1024,-88.808296,7.0,,BZ,BZ-TOL,Punta Gorda,yes,MZPG,PND,PND,,https://en.wikipedia.org/wiki/Punta_Gorda_Airport_(Belize),,Belize
42210,BZ-SJX,medium_airport,Sartaneja Airport,18.3561,-88.130798,3.0,,BZ,BZ-CZL,Sartaneja,yes,MZSJ,SJX,,,https://en.wikipedia.org/wiki/Sartaneja_Airport,,Belize
32370,BZ-SPR,medium_airport,John Greif II Airport,17.9139,-87.9711,4.0,,BZ,BZ-CY,San Pedro,yes,MZSP,SPR,,,https://en.wikipedia.org/wiki/San_Pedro_Airport,,Belize
42215,BZ-TZA,medium_airport,Sir Barry Bowen Municipal Airport,17.517239,-88.195775,8.0,,BZ,BZ-BZ,Belize City,yes,MZBE,TZA,,,https://en.wikipedia.org/wiki/Belize_City_Municipal_Airport,Belize City Municipal,Belize
27300,BZB,medium_airport,Bazaruto Island Airport,-21.5411,35.4729,,AF,MZ,MZ-I,Bazaruto Island,no,,BZB,,,https://en.wikipedia.org/wiki/Bazaruto_Island_Airport,,Mozambique
624,CAJ4,medium_airport,Anahim Lake Airport,52.451501,-125.303776,3635.0,,CA,CA-BC,Anahim Lake,yes,CAJ4,YAA,CAJ4,,https://en.wikipedia.org/wiki/Anahim_Lake_Airport,AJ4,Canada
643,CAT4,medium_airport,Qualicum Beach Airport,49.337456,-124.393086,191.0,,CA,CA-BC,Qualicum Beach,yes,CAT4,XQU,CAT4,http://www.qualicumbeach.com/cms.asp?wpID=437,https://en.wikipedia.org/wiki/Qualicum_Beach_Airport,AT4,Canada
664,CBBC,medium_airport,Bella Bella (Campbell Island) Airport,52.185001,-128.156994,141.0,,CA,CA-BC,Bella Bella,yes,CBBC,ZEL,CBBC,,https://en.wikipedia.org/wiki/Bella_Bella_(Campbell_Island)_Airport,BBC,Canada
344674,CD-0024,medium_airport,Boma Lukandu International Airport,-5.80543,12.99582,281.0,AF,CD,CD-KO,Boma,no,,,,,https://en.wikipedia.org/wiki/Boma_International_Airport,,"Congo, The Democratic Republic of the"
43972,CN-0003,medium_airport,Laohutun Air Base,39.669998,121.765999,,AS,CN,CN-21,"Wafangdian, Dalian",no,,,,,,,China
43973,CN-0004,medium_airport,Pulandian Air Base,39.450901,122.017998,,AS,CN,CN-21,"Pulandian, Dalian",no,,,,,,,China
44082,CN-0006,medium_airport,Beijing Shahezhen Air Base,40.14916610717773,116.3213882446289,,AS,CN,CN-11,Beijing,no,,,,,,,China
44083,CN-0007,medium_airport,Beijing Tongxian Air Base,39.81111145019531,116.70833587646484,,AS,CN,CN-11,Beijing,no,,,,,,,China
44127,CN-0012,medium_airport,Yuanmou Air Base,25.737499,101.882004,3810.0,AS,CN,CN-53,Chuxiong (Yuanmou),no,ZPYM,YUA,,,,,China
44089,CN-0013,medium_airport,Fengning Air Base,41.26079940795898,116.61799621582033,,AS,CN,CN-13,,no,,,,,,,China
44090,CN-0014,medium_airport,Hohhot Bikeqi Air Base,40.737015,111.229749,,AS,CN,CN-15,Hohhot,no,,,,,,,China
44091,CN-0015,medium_airport,Huairen Air Base,39.717499,113.142998,3260.0,AS,CN,CN-14,Shuozhou,no,,,,,https://en.wikipedia.org/wiki/Huairen_Air_Base,Datong Huairen Airport,China
44092,CN-0016,medium_airport,Liangxiangzhen Air Base,39.757801,116.125999,,AS,CN,CN-11,Beijing,no,ZBLX,,,,,,China
44094,CN-0018,medium_airport,Tangguantun Air Base,38.781101,117.068001,,AS,CN,CN-12,Jinghai,no,,,,,,,China
44096,CN-0020,medium_airport,Wenshui Air Base,37.407799,111.966003,,AS,CN,CN-14,Lüliang,no,,,,,,,China
44097,CN-0021,medium_airport,Yangcun Air Base,39.37329864501953,117.09500122070312,,AS,CN,CN-12,,no,,,,,,Meichong,China
44098,CN-0022,medium_airport,Yongning Air Base,40.50310134887695,116.10800170898438,,AS,CN,CN-11,Yongning,no,,,,,,,China
44100,CN-0024,medium_airport,Zhangjiakou Ningyuan Airport,40.738602,114.93,2347.0,AS,CN,CN-13,Zhangjiakou,yes,ZBZJ,ZQZ,,,https://en.wikipedia.org/wiki/Zhangjiakou_Ningyuan_Airport,"Zhangjiakou Air Base, 张家口宁远机场, ZZHA",China
44101,CN-0025,medium_airport,Tangshan Zunhua Air Base,40.102501,117.887001,,AS,CN,CN-13,Tangshan,no,,,,,,,China
44102,CN-0026,medium_airport,Chengdu Huangtianba Air Base,30.705299,103.949997,,AS,CN,CN-51,Chengdu (Qingyang),no,,,,,,,China
44103,CN-0027,medium_airport,Baoshan Yunrui Airport,25.053301,99.168297,5453.0,AS,CN,CN-53,Baoshan (Longyang),yes,ZPBS,BSD,,,https://en.wikipedia.org/wiki/Baoshan_Yunrui_Airport,Baoshan Yunduan Airport,China
44106,CN-0030,medium_airport,Chongqing Baishiyi Air Base,29.4953,106.359001,,AS,CN,CN-50,Chongqing,no,,,,,,,China
44116,CN-0040,medium_airport,Lincang Boshang Airport,23.7381,100.025002,6230.0,AS,CN,CN-53,Lincang,yes,ZPLC,LNJ,,,https://en.wikipedia.org/wiki/Lincang_Airport,Lintsang Airfield,China
44117,CN-0041,medium_airport,Luliang Air Base,24.988192,103.642833,,AS,CN,CN-53,Qujing (Luliang),no,,,,,,,China
44119,CN-0043,medium_airport,Honghe Mengzi Airport / Mengzi Air Base,23.3953,103.334,,AS,CN,CN-53,Honghe,no,,,,,,ZWEE,China
44121,CN-0045,medium_airport,Qionglai Air Base,30.49099,103.466139,,AS,CN,CN-51,Chengdu (Qionglai),no,,,,,,,China
44122,CN-0046,medium_airport,Xigaze Peace Airport / Shigatse Air Base,29.3519,89.311401,3782.0,AS,CN,CN-54,Xigazê (Samzhubzê),yes,ZURK,RKZ,,,https://en.wikipedia.org/wiki/Shigatse_Peace_Airport,,China
44124,CN-0048,medium_airport,Wenshan Air Base,23.715599060058597,103.8270034790039,,AS,CN,CN-53,,no,,,,,,,China
44125,CN-0049,medium_airport,Xiangyun Midu Air Base,25.445299,100.735001,,AS,CN,CN-53,Dali (Xiangyun),no,,,,,,Beitun Airport,China
44126,CN-0050,medium_airport,Panzhihua Bao'anying Airport,26.54,101.79852,1620.0,AS,CN,CN-51,Panzhihua (Renhe),yes,ZUZH,PZI,,,https://en.wikipedia.org/wiki/Panzhihua_Bao'anying_Airport,"Xining Air Base, 攀枝花保安营机场",China
44131,CN-0053,medium_airport,Baihe Ningming Air Base,22.120481,107.125046,,AS,CN,CN-45,Ningming,no,,,,,,,China
44133,CN-0055,medium_airport,Changsha Datuopu Airport / Changsha Air Base,28.068522,112.957306,170.0,AS,CN,CN-43,Changsha (Tianxin),no,ZGCS,,,,,Changsha City Airport,China
44134,CN-0056,medium_airport,Dangyang Air Base,30.798599,111.809998,,AS,CN,CN-42,Yichang (Dangyang),no,,,,,,,China
44135,CN-0057,medium_airport,Foluo Northeast Air Base,18.6922,109.161003,,AS,CN,CN-46,Ledong (Da'anzhen),no,,,,,,,China
44139,CN-0061,medium_airport,Foshan Shadi Airport,23.0833,113.07,6.0,AS,CN,CN-44,Foshan (Nanhai),yes,ZGFS,FUO,,,https://en.wikipedia.org/wiki/Foshan_Shadi_Airport,Guangzhou Shadi Air Base,China
44141,CN-0063,medium_airport,Guiping Mengxu Air Base,23.330799,110.009003,171.0,AS,CN,CN-45,Guiping (Guigang),no,,,,,,,China
323907,CN-0067,medium_airport,Xinyang Minggang Airport,32.540819,114.079141,312.0,AS,CN,CN-41,Xinyang,yes,ZHXY,XAI,,,https://en.wikipedia.org/wiki/Xinyang_Minggang_Airport,"Queshan Air Base, 信阳明港机场",China
44146,CN-0068,medium_airport,Huizhou Pingtan Airport,23.049999,114.599998,50.0,AS,CN,CN-44,Huizhou (Pingtan),yes,ZGHZ,HUZ,,,https://en.wikipedia.org/wiki/Huizhou_Airport,"Huiyang Air Base, Pingtan Airport",China
44147,CN-0069,medium_airport,Jialaishi Air Base,19.697201,109.725998,,AS,CN,CN-46,Lingao (Jialai),no,,,,,,,China
44149,CN-0071,medium_airport,Leiyang Air Base,26.58720016479492,112.89199829101562,,AS,CN,CN-43,,no,,,,,,,China
44150,CN-0072,medium_airport,Lingshui Air Base,18.4944,109.987999,,AS,CN,CN-46,Lingshui (Huayuan),no,,,,,,,China
324349,CN-0074,medium_airport,Shangqiu Air Base,34.449507,115.459261,,AS,CN,CN-41,Shangqiu,no,,,,,https://en.wikipedia.org/wiki/Shangqiu_Airport,,China
324768,CN-0076,medium_airport,Zhengzhou Air Base,34.86125,113.729631,,AS,CN,CN-41,Zhengzhou,no,,,,,,,China
44157,CN-0079,medium_airport,Shaoguan Danxia Airport,24.9786,113.420998,280.0,AS,CN,CN-44,Shaoguan,yes,ZGSG,HSC,,,https://en.wikipedia.org/wiki/Shaoguan_Danxia_Airport,"Shaoguan Air Base, Shaoguan Guitou Airport",China
44158,CN-0080,medium_airport,Suixi Air Base,21.3958,110.199997,,AS,CN,CN-44,Zhanjiang (Suixi),no,,,,,,,China
44159,CN-0081,medium_airport,Jinggangshan Airport,26.856899,114.737,281.0,AS,CN,CN-36,Ji'an,yes,ZSJA,JGS,,,https://en.wikipedia.org/wiki/Jinggangshan_Airport,"Tiahe Air Base, Ji'an Airport",China
44160,CN-0082,medium_airport,Baise Youjiang Airport,23.7206,106.959999,490.0,AS,CN,CN-45,Baise (Tianyang),yes,ZGBS,AEB,,,https://en.wikipedia.org/wiki/Baise_Youjiang_Airport,"Tian Yang Air Base, Bose airport, 百色右江机场",China
329666,CN-0083,medium_airport,Guodu Air Base,36.000428,117.625833,,AS,CN,CN-37,"Xintai, Tai'an",no,,,,,,,China
44163,CN-0085,medium_airport,Xiaogan Air Base,30.95359,113.911774,,AS,CN,CN-42,Xiaogan (Xiaonan),no,,,,,,,China
44167,CN-0089,medium_airport,Lianyungang Huaguoshan International Airport,34.41406,119.17899,,AS,CN,CN-32,Lianyungang,yes,ZSLG,LYG,,,https://en.wikipedia.org/wiki/Lianyungang_Huaguoshan_International_Airport,,China
44168,CN-0090,medium_airport,Cangxian Air Base,38.403025,116.930924,,AS,CN,CN-13,Cangzhou,no,,,,,,,China
44169,CN-0091,medium_airport,Dongying Shengli Airport,37.5085983276,118.788002014,15.0,AS,CN,CN-37,Dongying,no,ZSDY,DOY,,,https://en.wikipedia.org/wiki/Dongying_Shengli_Airport,"Dongying Air Base, Dongying Yong'an Airport",China
44170,CN-0092,medium_airport,Jiaozhou Jiaocheng Air Base,36.331163,120.025538,62.0,AS,CN,CN-37,"Jiaozhou, Qingdao",no,,,,,,,China
44172,CN-0094,medium_airport,Jiugucheng Air Base,37.491153,116.116726,75.0,AS,CN,CN-13,Hengshui,no,,,,,,,China
44173,CN-0095,medium_airport,Kaifeng Air Base,34.75389862060547,114.33899688720705,,AS,CN,CN-41,Kaifeng,no,,,,,,,China
44174,CN-0096,medium_airport,Laiyang Air Base,36.9636,120.591003,,AS,CN,CN-37,Yantai,no,,,,,,,China
44175,CN-0097,medium_airport,Luyang Air Base,33.685434,112.89053,469.0,AS,CN,CN-41,Xuchang (Pingdingshan),no,,,,,,,China
44182,CN-0104,medium_airport,Xingcheng Air Base,40.580328,120.700374,30.0,AS,CN,CN-21,"Xingcheng, Huludao",no,ZYXC,XEN,,,,,China
44184,CN-0106,medium_airport,Xuzhou Daguozhang Air Base,34.229285,117.245665,,AS,CN,CN-32,Xuzhou,no,,,,,,,China
44189,CN-0111,medium_airport,Zhucheng Air Base,36.027468,119.43778,,AS,CN,CN-37,Weifang,no,,,,,,,China
44191,CN-0113,medium_airport,Altay Xuedu Airport,47.749886,88.085808,2460.0,AS,CN,CN-65,Altay,yes,ZWAT,AAT,,,https://en.wikipedia.org/wiki/Altay_Xuedu_Airport,Altay Air Base,China
44192,CN-0114,medium_airport,Baoji Air Base,34.53125,107.470679,,AS,CN,CN-61,Baoji (Fengxiang),no,,,,,,,China
44195,CN-0117,medium_airport,Gonghe Air Base,36.3367,100.480003,,AS,CN,CN-63,Hainan (Gonghe),no,,,,,,,China
339961,CN-0121,medium_airport,Huangdicun Naval Air Base,40.49979,120.659295,97.0,AS,CN,CN-21,Huludao,no,,,,,,,China
44201,CN-0123,medium_airport,Lanzhou Air Base,35.917801,104.218002,,AS,CN,CN-62,Lanzhou (Yuzhong),no,,,,,,,China
44203,CN-0125,medium_airport,Lintao Air Base,35.3083,103.835999,,AS,CN,CN-62,Dingxi (Lintao),no,,,,,,,China
44205,CN-0127,medium_airport,Qingshui Air Base,39.554699,98.884201,,AS,CN,CN-62,Jiuquan (Suzhou),no,,,,,,,China
44208,CN-0130,medium_airport,Tianshui Maijishan Airport,34.559399,105.860001,3590.0,AS,CN,CN-62,Tianshui (Maiji),yes,ZLTS,THQ,,,https://en.wikipedia.org/wiki/Tianshui_Maijishan_Airport,"Tianshui Air Base, 天水麦积山机场, ZBEE",China
44210,CN-0132,medium_airport,Ürümqi South Air Base,43.466593,87.531177,,AS,CN,CN-65,Ürümqi,no,,,,,,,China
44211,CN-0133,medium_airport,Uxxaktal Air Base,42.1814,87.188103,,AS,CN,CN-65,"Hoxud, Bayingolin",no,ZWML,,,,,,China
44212,CN-0134,medium_airport,Wugong Air Base,34.275907,108.2658,,AS,CN,CN-61,Xianyang (Wugong),no,,,,,,,China
44213,CN-0135,medium_airport,Ürümqi Changji Air Base,43.951175,87.079232,2425.0,AS,CN,CN-65,Ashilixiang,no,,,,,,,China
44214,CN-0136,medium_airport,Wuwei Air Base,37.9883,102.567001,,AS,CN,CN-62,Wuwei,no,,,,,,,China
44215,CN-0137,medium_airport,Xi'an Air Base,34.153059,108.599739,1337.0,AS,CN,CN-61,Xi'an (Huyi),no,,,,,,Huxian Air Base,China
44216,CN-0138,medium_airport,Xincheng Air Base,25.5483,114.619003,,AS,CN,CN-36,Ganzhou,no,,,,,,,China
44217,CN-0139,medium_airport,Yaerbashi Test Range,43.077202,92.808098,,AS,CN,CN-65,"Yizhou, Hami",no,,,,,,,China
44218,CN-0140,medium_airport,Yanliang Air Base,34.642248,109.241867,,AS,CN,CN-61,Xi'an (Yanliang),no,,,,,,,China
44224,CN-0146,medium_airport,Daishan Air Base,30.287581,122.144401,7.0,AS,CN,CN-33,Zhoushan,no,,,,,,,China
44225,CN-0147,medium_airport,Feidong Air Base,31.909401,117.658997,,AS,CN,CN-34,Hefei,no,,,,,,,China
44227,CN-0149,medium_airport,Fuzhou Air Base,26.0044,119.311996,,AS,CN,CN-35,Fuzhou,no,,,,,,,China
44230,CN-0152,medium_airport,Huian Air Base,25.026100158691406,118.80699920654295,,AS,CN,CN-35,,no,,,,,,,China
44231,CN-0153,medium_airport,Hangzhou Jianqiao Airport,30.3353,120.240997,,AS,CN,CN-33,Hangzhou,no,,,,,https://en.wikipedia.org/wiki/Hangzhou_Jianqiao_Airport,,China
44232,CN-0154,medium_airport,Jiaxing Airport / Jiaxing Air Base,30.705535,120.679779,17.0,AS,CN,CN-33,"Xiuzhou, Hangzhou",no,,,,,https://en.wikipedia.org/wiki/Jiaxing_Airport,,China
44236,CN-0158,medium_airport,Longtian Air Base,25.5728,119.459999,13.0,AS,CN,CN-35,Fuzhou (Fuqing),no,,,,,,L'ung-tien,China
44241,CN-0163,medium_airport,Nanchang Xiangtang Air Base,28.421205,115.923375,75.0,AS,CN,CN-36,Nanchang,no,,,,,,,China
44243,CN-0165,medium_airport,Ningbo Zhuangqiao Air Base,29.9228,121.573997,,AS,CN,CN-33,Ningbo,no,,,,,,,China
44247,CN-0169,medium_airport,Shanghai Dachang Air Base,31.324438,121.409508,,AS,CN,CN-31,Shanghai (Baoshan),no,,,,,,,China
44260,CN-0182,medium_airport,Zhangshu Air Base,28.023283,115.549649,116.0,AS,CN,CN-36,Yichun,no,,,,,,,China
44263,CN-0185,medium_airport,Changchun Air Base,43.9053,125.197998,,AS,CN,CN-22,Changchun,no,,,,,,,China
44267,CN-0189,medium_airport,Dandong Langtou Airport,40.0247,124.286003,30.0,AS,CN,CN-21,"Zhenxing, Dandong",yes,ZYDD,DDG,,http://www.ddcei.gov.cn/english/index.html,https://en.wikipedia.org/wiki/Dandong_Airport,,China
44268,CN-0190,medium_airport,Dingxin-Shuangchengzi Air Base,40.401402,99.789398,,AS,CN,CN-62,Jiuquan (Jinta),no,,,,,,,China
44269,CN-0191,medium_airport,Fuxin Air Base,42.078899,121.662003,,AS,CN,CN-21,"Xihe, Fuxin",no,,,,,,,China
44270,CN-0192,medium_airport,Gongzhuling Air Base,43.526293,124.78466,,AS,CN,CN-22,Siping,no,,,,,,Huaide Air Base,China
44275,CN-0197,medium_airport,Kaiyuan Air Base,42.525799,123.982002,,AS,CN,CN-21,"Qinghe, Tieling",no,,,,,,,China
44276,CN-0198,medium_airport,Lalin Air Base,45.259457,126.893536,,AS,CN,CN-23,Harbin,no,,,,,,,China
44279,CN-0201,medium_airport,Pingquan Air Base,40.900409,118.677878,,AS,CN,CN-13,Chengde,no,,,,,,,China
44282,CN-0204,medium_airport,Shenyang Beiling Air Base,41.8708,123.439003,,AS,CN,CN-21,"Huanggu, Shenyang",no,,,,,,,China
44284,CN-0206,medium_airport,Shenyang Yuhong Quansheng Airport,41.822498,123.299004,,AS,CN,CN-21,"Yuhong, Shenyang",no,ZYSY,,,,,,China
44286,CN-0208,medium_airport,Siping Air Base,43.156898,124.292,,AS,CN,CN-22,Siping,no,,,,,,,China
44287,CN-0209,medium_airport,Suizhong Air Base,40.298992,120.36152,43.0,AS,CN,CN-21,Huludao,no,,,,,,,China
44288,CN-0210,medium_airport,Tuchengzi Air Base,38.912201,121.238998,,AS,CN,CN-21,"Lüshunkou, Dalian",no,,,,,,,China
43974,CN-JNZ,medium_airport,Sanshilipu Air Base,39.289671,121.762195,,AS,CN,CN-21,"Jinzhou, Dalian",no,,,,,,Shilipu,China
32048,CN-NTG,medium_airport,Nantong Xingdong International Airport,32.070801,120.975998,16.0,AS,CN,CN-32,Nantong,yes,ZSNT,NTG,,,https://en.wikipedia.org/wiki/Nantong_Xingdong_Airport,,China
1294,CNC3,medium_airport,Brampton-Caledon Airport,43.7603,-79.875,935.0,,CA,CA-ON,,no,CNC3,,CNC3,,https://en.wikipedia.org/wiki/Brampton_Airport,NC3,Canada
44646,CY-0002,medium_airport,Lefkoniko Airport / Geçitkale Air Base,35.23591,33.720088,146.0,AS,CY,CY-03,Lefkoniko (Geçitkale),yes,LCGK,GEC,,,https://en.wikipedia.org/wiki/Geçitkale_Air_Base,Geçitkale Air Base,Cyprus
1654,CYAG,medium_airport,Fort Frances Municipal Airport,48.655749,-93.44349,1125.0,,CA,CA-ON,Fort Frances,yes,CYAG,YAG,,,https://en.wikipedia.org/wiki/Fort_Frances_Municipal_Airport,,Canada
1655,CYAH,medium_airport,La Grande-4 Airport,53.754699707,-73.6753005981,1005.0,,CA,CA-QC,La Grande-4,no,CYAH,YAH,,,https://en.wikipedia.org/wiki/La_Grande-4_Airport,YAH,Canada
1657,CYAM,medium_airport,Sault Ste Marie Airport,46.483216,-84.508467,630.0,,CA,CA-ON,Sault Ste Marie,yes,CYAM,YAM,,http://www.saultairport.com/,https://en.wikipedia.org/wiki/Sault_Ste._Marie_Airport,,Canada
1658,CYAQ,medium_airport,Kasabonika Airport,53.52470016479492,-88.6427993774414,672.0,,CA,CA-ON,Kasabonika,yes,CYAQ,XKS,,,https://en.wikipedia.org/wiki/Kasabonika_Airport,YAQ,Canada
1662,CYAV,medium_airport,Winnipeg / St. Andrews Airport,50.0564,-97.032501,760.0,,CA,CA-MB,Winnipeg/Saint Andrews,yes,CYAV,,,,https://en.wikipedia.org/wiki/Winnipeg/St._Andrews_Airport,YAV,Canada
1664,CYAX,medium_airport,Lac Du Bonnet Airport,50.294399,-96.010002,850.0,,CA,CA-MB,Lac Du Bonnet,yes,CYAX,,,,https://en.wikipedia.org/wiki/Lac_du_Bonnet_Airport,YAX,Canada
1665,CYAY,medium_airport,St. Anthony Airport,51.391909,-56.08321,108.0,,CA,CA-NL,St. Anthony,yes,CYAY,YAY,,,https://en.wikipedia.org/wiki/St._Anthony_Airport,,Canada
1666,CYAZ,medium_airport,Tofino / Long Beach Airport,49.079833,-125.775583,80.0,,CA,CA-BC,Tofino,yes,CYAZ,YAZ,,http://www.acrd.bc.ca/long-beach-airport,https://en.wikipedia.org/wiki/Tofino_Airport,,Canada
1669,CYBC,medium_airport,Baie-Comeau Airport,49.1325,-68.204399,71.0,,CA,CA-QC,Baie-Comeau,yes,CYBC,YBC,YBC,,https://en.wikipedia.org/wiki/Baie-Comeau_Airport,,Canada
1670,CYBD,medium_airport,Bella Coola Airport,52.387501,-126.596001,117.0,,CA,CA-BC,Bella Coola,yes,CYBD,QBC,,,https://en.wikipedia.org/wiki/Bella_Coola_Airport,YBD,Canada
1672,CYBF,medium_airport,Bonnyville Airport,54.304199,-110.744003,1836.0,,CA,CA-AB,Bonnyville,yes,CYBF,YBY,,http://town.bonnyville.ab.ca/livingin/airport/index.html,https://en.wikipedia.org/wiki/Bonnyville_Airport,YBF,Canada
1673,CYBG,medium_airport,CFB Bagotville / Saguenay-Bagotville Airport,48.331908,-70.992909,522.0,,CA,CA-QC,La Baie,yes,CYBG,YBG,,,https://en.wikipedia.org/wiki/CFB_Bagotville,Bagotville Airport,Canada
1674,CYBK,medium_airport,Baker Lake Airport,64.29889678960001,-96.077796936,59.0,,CA,CA-NU,Baker Lake,yes,CYBK,YBK,,,https://en.wikipedia.org/wiki/Baker_Lake_Airport,,Canada
1675,CYBL,medium_airport,Campbell River Airport,49.950802,-125.271004,346.0,,CA,CA-BC,Campbell River,yes,CYBL,YBL,YBL,,https://en.wikipedia.org/wiki/Campbell_River_Airport,,Canada
1678,CYBR,medium_airport,Brandon Municipal Airport,49.91,-99.951897,1343.0,,CA,CA-MB,Brandon,yes,CYBR,YBR,,,https://en.wikipedia.org/wiki/Brandon_Airport,,Canada
1680,CYBU,medium_airport,Nipawin Airport,53.33250045776367,-104.00800323486328,1220.0,,CA,CA-SK,Nipawin,no,CYBU,,,,https://en.wikipedia.org/wiki/Nipawin_Airport,YBU,Canada
1682,CYBW,medium_airport,Calgary / Springbank Airport,51.1031,-114.374001,3940.0,,CA,CA-AB,Calgary,no,CYBW,,,http://www.ybw.ca/,https://en.wikipedia.org/wiki/Calgary/Springbank_Airport,YBW,Canada
1683,CYBX,medium_airport,Lourdes-de-Blanc-Sablon Airport,51.4436,-57.185299,121.0,,CA,CA-QC,Blanc-Sablon,yes,CYBX,YBX,,,https://en.wikipedia.org/wiki/Lourdes-de-Blanc-Sablon_Airport,,Canada
1685,CYCB,medium_airport,Cambridge Bay Airport,69.1081008911,-105.138000488,90.0,,CA,CA-NU,Cambridge Bay,yes,CYCB,YCB,,,https://en.wikipedia.org/wiki/Cambridge_Bay_Airport,,Canada
1686,CYCC,medium_airport,Cornwall Regional Airport,45.092637,-74.567724,175.0,,CA,CA-ON,Cornwall,no,CYCC,YCC,,,https://en.wikipedia.org/wiki/Cornwall_Regional_Airport,,Canada
1687,CYCD,medium_airport,Nanaimo Airport,49.05497,-123.869863,92.0,,CA,CA-BC,Nanaimo,yes,CYCD,YCD,,https://www.nanaimoairport.com/,https://en.wikipedia.org/wiki/Nanaimo_Airport,,Canada
1688,CYCE,medium_airport,Centralia / James T. Field Memorial Aerodrome,43.285599,-81.508301,824.0,,CA,CA-ON,Huron Park,no,CYCE,YCE,CYCE,,https://en.wikipedia.org/wiki/Centralia/Huron_Airpark,"RCAF Station Centralia, Huron Airpark",Canada
1689,CYCG,medium_airport,Castlegar/West Kootenay Regional Airport,49.2963981628,-117.632003784,1624.0,,CA,CA-BC,Castlegar,yes,CYCG,YCG,,,https://en.wikipedia.org/wiki/Castlegar_Airport,,Canada
1690,CYCH,medium_airport,Miramichi Airport,47.007801,-65.449203,108.0,,CA,CA-NB,Miramichi,yes,CYCH,YCH,,,https://en.wikipedia.org/wiki/Miramichi_Airport,"CFB Chatham, RCAF Station Chatham",Canada
1691,CYCL,medium_airport,Charlo Airport,47.990799,-66.330299,132.0,,CA,CA-NB,Charlo,yes,CYCL,YCL,,,https://en.wikipedia.org/wiki/Charlo_Airport,,Canada
1692,CYCN,medium_airport,Cochrane Airport,49.10559844970703,-81.01360321044922,861.0,,CA,CA-ON,Cochrane,no,CYCN,YCN,,,https://en.wikipedia.org/wiki/Cochrane_Airport,,Canada
1694,CYCP,medium_airport,Blue River Airport,52.11669921875,-119.28299713134766,2240.0,,CA,CA-BC,Blue River,no,CYCP,,,,https://en.wikipedia.org/wiki/Blue_River_Airport,YCP,Canada
1695,CYCQ,medium_airport,Chetwynd Airport,55.687198638916016,-121.6269989013672,2000.0,,CA,CA-BC,Chetwynd,no,CYCQ,YCQ,,,https://en.wikipedia.org/wiki/Chetwynd_Airport,,Canada
1703,CYDA,medium_airport,Dawson City Airport,64.04309844970703,-139.1280059814453,1215.0,,CA,CA-YT,Dawson City,yes,CYDA,YDA,,,https://en.wikipedia.org/wiki/Dawson_City_Airport,,Canada
1704,CYDB,medium_airport,Burwash Airport,61.371101,-139.041,2647.0,,CA,CA-YT,Burwash Landing,no,CYDB,YDB,,,https://en.wikipedia.org/wiki/Burwash_Airport,,Canada
1706,CYDF,medium_airport,Deer Lake Airport,49.21080017089844,-57.39139938354492,72.0,,CA,CA-NL,Deer Lake,yes,CYDF,YDF,,,https://en.wikipedia.org/wiki/Deer_Lake_Airport_(Newfoundland),,Canada
1709,CYDM,medium_airport,Ross River Airport,61.9706001282,-132.42300415,2314.0,,CA,CA-YT,Ross River,no,CYDM,XRR,YDM,,https://en.wikipedia.org/wiki/Ross_River_Airport,,Canada
1710,CYDN,medium_airport,Dauphin Barker Airport,51.1008,-100.052002,999.0,,CA,CA-MB,Dauphin,yes,CYDN,YDN,,,https://en.wikipedia.org/wiki/Dauphin_(Lt._Col_W.G._(Billy)_Barker_VC_Airport),,Canada
1711,CYDO,medium_airport,Dolbeau St Felicien Airport,48.778499603271,-72.375,372.0,,CA,CA-QC,Dolbeau-St-Félicien,no,CYDO,YDO,,,https://en.wikipedia.org/wiki/Dolbeau-St-F%C3%A9licien_Airport,Dolbeau St Methode,Canada
1713,CYDQ,medium_airport,Dawson Creek Airport,55.741245,-120.183263,2148.0,,CA,CA-BC,Dawson Creek,no,CYDQ,YDQ,,,https://en.wikipedia.org/wiki/Dawson_Creek_Airport,,Canada
1716,CYEE,medium_airport,Huronia Airport,44.6833000183,-79.9282989502,770.0,,CA,CA-ON,Midland,no,CYEE,,YEE,,https://en.wikipedia.org/wiki/Midland/Huronia_Airport,,Canada
1717,CYEG,large_airport,Edmonton International Airport,53.3097,-113.580002,2373.0,,CA,CA-AB,Edmonton,yes,CYEG,YEG,CYEG,http://www.edmontonairports.com/,https://en.wikipedia.org/wiki/Edmonton_International_Airport,,Canada
1719,CYEL,medium_airport,Elliot Lake Municipal Airport,46.351398468,-82.5614013672,1087.0,,CA,CA-ON,Elliot Lake,no,CYEL,YEL,,http://cyelont.tripod.com/cyel/,https://en.wikipedia.org/wiki/Elliot_Lake_Municipal_Airport,,Canada
1720,CYEM,medium_airport,Manitoulin East Municipal Airport,45.842435,-81.857595,869.0,,CA,CA-ON,Sheguiandah,no,CYEM,YEM,,,https://en.wikipedia.org/wiki/Manitowaning/Manitoulin_East_Municipal_Airport,,Canada
1721,CYEN,medium_airport,Estevan Airport,49.2103004456,-102.966003418,1905.0,,CA,CA-SK,Estevan,no,CYEN,YEN,,,https://en.wikipedia.org/wiki/Estevan_Regional_Aerodrome,YEN,Canada
1724,CYET,medium_airport,Edson Airport,53.5788993835,-116.464996338,3043.0,,CA,CA-AB,Edson,no,CYET,YET,,,https://en.wikipedia.org/wiki/Edson_Airport,,Canada
1726,CYEV,medium_airport,Inuvik Mike Zubko Airport,68.30419921880001,-133.483001709,224.0,,CA,CA-NT,Inuvik,yes,CYEV,YEV,,,https://en.wikipedia.org/wiki/Inuvik_(Mike_Zubko)_Airport,,Canada
1727,CYEY,medium_airport,Amos/Magny Airport,48.563903,-78.249702,1068.0,,CA,CA-QC,Amos,no,CYEY,YEY,,,https://en.wikipedia.org/wiki/Amos/Magny_Airport,,Canada
1729,CYFB,medium_airport,Iqaluit Airport,63.756402,-68.555801,110.0,,CA,CA-NU,Iqaluit,yes,CYFB,YFB,,,https://en.wikipedia.org/wiki/Iqaluit_Airport,Frobisher Bay Air Base,Canada
1730,CYFC,medium_airport,Fredericton Airport,45.868900299072266,-66.53720092773438,68.0,,CA,CA-NB,Fredericton,yes,CYFC,YFC,,,https://en.wikipedia.org/wiki/Greater_Fredericton_Airport,,Canada
1732,CYFE,medium_airport,Forestville Airport,48.74610137939453,-69.09719848632812,293.0,,CA,CA-QC,Forestville,no,CYFE,YFE,,,https://en.wikipedia.org/wiki/Forestville_Airport,,Canada
1734,CYFJ,medium_airport,Mont-Tremblant International Airport,46.409401,-74.779999,827.0,,CA,CA-QC,La Macaza,yes,CYFJ,YTM,,http://www.mtia.ca/,https://en.wikipedia.org/wiki/Rivi%C3%A8re_Rouge/Mont-Tremblant_International_Inc_Airport,"YFJ, CYTM",Canada
1736,CYFR,medium_airport,Fort Resolution Airport,61.1808013916,-113.690002441,526.0,,CA,CA-NT,Fort Resolution,no,CYFR,YFR,,,https://en.wikipedia.org/wiki/Fort_Resolution_Airport,YFR,Canada
1737,CYFS,medium_airport,Fort Simpson Airport,61.76020050048828,-121.23699951171876,555.0,,CA,CA-NT,Fort Simpson,yes,CYFS,YFS,,,https://en.wikipedia.org/wiki/Fort_Simpson_Airport,,Canada
1740,CYGD,medium_airport,Goderich Airport,43.7668991089,-81.7106018066,712.0,,CA,CA-ON,Goderich,no,CYGD,,YGD,http://www.goderich.ca/en/townhall/airport.asp,https://en.wikipedia.org/wiki/Goderich_Airport,,Canada
1741,CYGE,medium_airport,Golden Airport,51.299196,-116.982002,2575.0,,CA,CA-BC,Golden,no,CYGE,,,,https://en.wikipedia.org/wiki/Golden_Airport,AL4,Canada
1743,CYGK,medium_airport,Kingston Norman Rogers Airport,44.2253,-76.596901,305.0,,CA,CA-ON,Kingston,no,CYGK,YGK,,http://www.ygkairport.com,https://en.wikipedia.org/wiki/Kingston/Norman_Rogers_Airport,,Canada
1744,CYGL,medium_airport,La Grande Rivière Airport,53.625301361083984,-77.7042007446289,639.0,,CA,CA-QC,La Grande Rivière,yes,CYGL,YGL,,,https://en.wikipedia.org/wiki/La_Grande_Rivi%C3%A8re_Airport,,Canada
1745,CYGM,medium_airport,Gimli Industrial Park Airport,50.62810134887695,-97.04329681396484,753.0,,CA,CA-MB,Gimli,no,CYGM,YGM,,,https://en.wikipedia.org/wiki/Gimli_Industrial_Park_Airport,,Canada
1747,CYGP,medium_airport,Michel-Pouliot Gaspé Airport,48.774915,-64.481893,112.0,,CA,CA-QC,Gaspé,yes,CYGP,YGP,,,https://en.wikipedia.org/wiki/Gasp%C3%A9_Airport,,Canada
1748,CYGQ,medium_airport,Geraldton Greenstone Regional Airport,49.77830123901367,-86.93939971923828,1144.0,,CA,CA-ON,Geraldton,no,CYGQ,YGQ,,,https://en.wikipedia.org/wiki/Geraldton_(Greenstone_Regional)_Airport,,Canada
1749,CYGR,medium_airport,Îles-de-la-Madeleine Airport,47.425242,-61.778612,35.0,,CA,CA-QC,Les Îles-de-la-Madeleine,yes,CYGR,YGR,,,https://en.wikipedia.org/wiki/%C3%8Eles-de-la-Madeleine_Airport,,Canada
1751,CYGV,medium_airport,Havre-Saint-Pierre Airport,50.281898,-63.611401,124.0,,CA,CA-QC,Havre-Saint-Pierre,yes,CYGV,YGV,,,https://en.wikipedia.org/wiki/Havre_St-Pierre_Airport,,Canada
1752,CYGW,medium_airport,Kuujjuarapik Airport,55.28189849853516,-77.76529693603516,34.0,,CA,CA-QC,Kuujjuarapik,yes,CYGW,YGW,,,https://en.wikipedia.org/wiki/Kuujjuarapik_Airport,,Canada
1757,CYHD,medium_airport,Dryden Regional Airport,49.831699,-92.744202,1354.0,,CA,CA-ON,Dryden,yes,CYHD,YHD,,,https://en.wikipedia.org/wiki/Dryden_Regional_Airport,,Canada
1759,CYHF,medium_airport,Hearst René Fontaine Municipal Airport,49.71419906616211,-83.68609619140625,827.0,,CA,CA-ON,Hearst,no,CYHF,YHF,,,https://en.wikipedia.org/wiki/Hearst_(Ren%C3%A9_Fontaine)_Municipal_Airport,,Canada
1763,CYHM,medium_airport,John C. Munro Hamilton International Airport,43.1735992432,-79.93499755859999,780.0,,CA,CA-ON,Hamilton,yes,CYHM,YHM,,http://www.flyhi.ca/,https://en.wikipedia.org/wiki/Hamilton/John_C._Munro_International_Airport,Mount Hope Airport,Canada
1764,CYHN,medium_airport,Hornepayne Municipal Airport,49.19309997558594,-84.75890350341797,1099.0,,CA,CA-ON,Hornepayne,no,CYHN,YHN,,,https://en.wikipedia.org/wiki/Hornepayne_Municipal_Airport,,Canada
1767,CYHT,medium_airport,Haines Junction Airport,60.7892,-137.546005,2150.0,,CA,CA-YT,Haines Junction,no,CYHT,YHT,,,https://en.wikipedia.org/wiki/Haines_Junction_Airport,,Canada
1768,CYHU,medium_airport,Montréal / Saint-Hubert Airport,45.5175018311,-73.4169006348,90.0,,CA,CA-QC,Montréal,yes,CYHU,YHU,,http://www.dashl.ca/,https://en.wikipedia.org/wiki/Montr%C3%A9al/St-Hubert_Airport,,Canada
1769,CYHY,medium_airport,Hay River / Merlyn Carter Airport,60.8396987915,-115.782997131,541.0,,CA,CA-NT,Hay River,yes,CYHY,YHY,,,https://en.wikipedia.org/wiki/Hay_River_Airport,,Canada
1770,CYHZ,large_airport,Halifax / Stanfield International Airport,44.8807983398,-63.5085983276,477.0,,CA,CA-NS,Halifax,yes,CYHZ,YHZ,,http://www.hiaa.ca/,https://en.wikipedia.org/wiki/Halifax_International_Airport,Robert L. Stanfield International Airport,Canada
1771,CYIB,medium_airport,Atikokan Municipal Airport,48.7738990784,-91.6386032104,1408.0,,CA,CA-ON,Atikokan,no,CYIB,YIB,,http://www.atikokaninfo.com/community/transportation/airport/,https://en.wikipedia.org/wiki/Atikokan_Municipal_Airport,,Canada
1772,CYID,medium_airport,Digby / Annapolis Regional Airport,44.5458450365,-65.7854247093,499.0,,CA,CA-NS,Digby,no,CYID,YDG,,,https://en.wikipedia.org/wiki/Digby_Airport,YID,Canada
1773,CYIF,medium_airport,St Augustin Airport,51.2117,-58.658298,20.0,,CA,CA-QC,St-Augustin,yes,CYIF,YIF,,,https://en.wikipedia.org/wiki/St-Augustin_Airport,Pakuashipi Airport,Canada
1776,CYIV,medium_airport,Island Lake Airport,53.857200622558594,-94.65360260009766,770.0,,CA,CA-MB,Island Lake,yes,CYIV,YIV,,,https://en.wikipedia.org/wiki/Island_Lake_Airport,,Canada
1778,CYJF,medium_airport,Fort Liard Airport,60.2358016968,-123.46900177,708.0,,CA,CA-NT,Fort Liard,no,CYJF,YJF,,,https://en.wikipedia.org/wiki/Fort_Liard_Airport,YJF,Canada
1780,CYJN,medium_airport,St Jean Airport,45.29439926147461,-73.28109741210938,136.0,,CA,CA-QC,St Jean,no,CYJN,YJN,,,https://en.wikipedia.org/wiki/St-Jean_Airport,,Canada
1783,CYJT,medium_airport,Stephenville Airport,48.544201,-58.549999,84.0,,CA,CA-NL,Stephenville,no,CYJT,YJT,,,https://en.wikipedia.org/wiki/Stephenville_Airport,,Canada
1784,CYKA,medium_airport,Kamloops John Moose Fulton Field Regional Airport,50.703038,-120.448641,1133.0,,CA,CA-BC,Kamloops,yes,CYKA,YKA,,,https://en.wikipedia.org/wiki/Kamloops_Airport,Fulton,Canada
1787,CYKF,medium_airport,Region of Waterloo International Airport,43.4608,-80.378601,1054.0,,CA,CA-ON,Kitchener,yes,CYKF,YKF,,http://www.waterlooairport.ca/,https://en.wikipedia.org/wiki/Region_of_Waterloo_International_Airport,"Breslau, Kitchener, Waterloo, Cambridge, YKF",Canada
1789,CYKJ,medium_airport,Key Lake Airport,57.25609970092773,-105.61799621582033,1679.0,,CA,CA-SK,Key Lake,no,CYKJ,YKJ,,,https://en.wikipedia.org/wiki/Key_Lake_Airport,,Canada
1790,CYKL,medium_airport,Schefferville Airport,54.805301666259766,-66.8052978515625,1709.0,,CA,CA-QC,Schefferville,yes,CYKL,YKL,,,https://en.wikipedia.org/wiki/Schefferville_Airport,,Canada
1793,CYKX,medium_airport,Kirkland Lake Airport,48.21030044555664,-79.98139953613281,1157.0,,CA,CA-ON,Kirkland Lake,no,CYKX,YKX,,,https://en.wikipedia.org/wiki/Kirkland_Lake_Airport,,Canada
1794,CYKY,medium_airport,Kindersley Airport,51.5175018311,-109.180999756,2277.0,,CA,CA-SK,Kindersley,no,CYKY,YKY,YKY,,https://en.wikipedia.org/wiki/Kindersley_Airport,YKY,Canada
1799,CYLD,medium_airport,Chapleau Airport,47.81999969482422,-83.3467025756836,1470.0,,CA,CA-ON,Chapleau,no,CYLD,YLD,,,https://en.wikipedia.org/wiki/Chapleau_Airport,,Canada
1801,CYLJ,medium_airport,Meadow Lake Airport,54.125301361083984,-108.52300262451172,1576.0,,CA,CA-SK,Meadow Lake,no,CYLJ,YLJ,,,https://en.wikipedia.org/wiki/Meadow_Lake_Airport,,Canada
1803,CYLL,medium_airport,Lloydminster Airport,53.309200286865234,-110.072998046875,2193.0,,CA,CA-AB,Lloydminster,yes,CYLL,YLL,,,https://en.wikipedia.org/wiki/Lloydminster_Airport,,Canada
1805,CYLR,medium_airport,Leaf Rapids Airport,56.513301849365234,-99.98529815673828,959.0,,CA,CA-MB,Leaf Rapids,no,CYLR,YLR,,,https://en.wikipedia.org/wiki/Leaf_Rapids_Airport,,Canada
1293,CYLS,medium_airport,Barrie-Lake Simcoe Regional Airport,44.485056,-79.554663,972.0,,CA,CA-ON,Barrie,yes,CYLS,YLK,CYLS,http://www.lakesimcoeairport.com/,https://en.wikipedia.org/wiki/Barrie-Orillia_(Lake_Simcoe_Regional)_Airport,"NB9, CNB9, Oro Station",Canada
1806,CYLT,medium_airport,Alert Airport,82.517799,-62.280602,100.0,,CA,CA-NU,Alert,no,CYLT,YLT,,,https://en.wikipedia.org/wiki/Alert_Airport,YLT,Canada
1808,CYLW,medium_airport,Kelowna International Airport,49.9561,-119.377998,1421.0,,CA,CA-BC,Kelowna,yes,CYLW,YLW,,http://www.kelowna.ca/CM/Page68.aspx,https://en.wikipedia.org/wiki/Kelowna_International_Airport,"Kelowna, Okanagan",Canada
1809,CYMA,medium_airport,Mayo Airport,63.61640167236328,-135.8679962158203,1653.0,,CA,CA-YT,Mayo,no,CYMA,YMA,,,https://en.wikipedia.org/wiki/Mayo_Airport,,Canada
1810,CYME,medium_airport,Matane Airport,48.85689926147461,-67.45330047607422,102.0,,CA,CA-QC,Matane,no,CYME,YME,,,https://en.wikipedia.org/wiki/Matane_Airport,,Canada
1811,CYMG,medium_airport,Manitouwadge Airport,49.08390045166016,-85.86060333251953,1198.0,,CA,CA-ON,Manitouwadge,no,CYMG,YMG,,,https://en.wikipedia.org/wiki/Manitouwadge_Airport,,Canada
1813,CYMJ,medium_airport,Moose Jaw Air Vice Marshal C. M. McEwen Airport,50.330299377441406,-105.55899810791016,1892.0,,CA,CA-SK,Moose Jaw,no,CYMJ,YMJ,,,https://en.wikipedia.org/wiki/Moose_Jaw/Air_Vice_Marshal_C.M._McEwen_Airport,CFB Moose Jaw,Canada
1814,CYML,medium_airport,Charlevoix Airport,47.59749984741211,-70.2238998413086,977.0,,CA,CA-QC,Charlevoix,no,CYML,YML,,,https://en.wikipedia.org/wiki/Charlevoix_Airport,,Canada
1815,CYMM,medium_airport,Fort McMurray Airport,56.653301239,-111.222000122,1211.0,,CA,CA-AB,Fort McMurray,yes,CYMM,YMM,,,https://en.wikipedia.org/wiki/Fort_McMurray_Airport,,Canada
1816,CYMO,medium_airport,Moosonee Airport,51.29109954833984,-80.60780334472656,30.0,,CA,CA-ON,Moosonee,yes,CYMO,YMO,,,https://en.wikipedia.org/wiki/Moosonee_Airport,,Canada
1817,CYMT,medium_airport,Chapais Airport,49.77190017700195,-74.5280990600586,1270.0,,CA,CA-QC,Chibougamau,yes,CYMT,YMT,,,https://en.wikipedia.org/wiki/Chibougamau/Chapais_Airport,,Canada
1820,CYMX,medium_airport,Montreal International (Mirabel) Airport,45.679501,-74.038696,270.0,,CA,CA-QC,Montréal,no,CYMX,YMX,,,https://en.wikipedia.org/wiki/Montr%C3%A9al-Mirabel_International_Airport,YMQ,Canada
1822,CYNA,medium_airport,Natashquan Airport,50.18999862670898,-61.78919982910156,39.0,,CA,CA-QC,Natashquan,yes,CYNA,YNA,,,https://en.wikipedia.org/wiki/Natashquan_Airport,,Canada
1824,CYND,medium_airport,Ottawa / Gatineau Airport,45.521702,-75.563599,211.0,,CA,CA-QC,Gatineau,yes,CYND,YND,CYND,http://www.ego-airport.ca/english/propos_ego/,https://en.wikipedia.org/wiki/Ottawa-Gatineau_Airport,YND,Canada
1827,CYNJ,medium_airport,Langley Airport,49.1008,-122.630997,34.0,,CA,CA-BC,Langley,no,CYNJ,YLY,,,https://en.wikipedia.org/wiki/Langley_Regional_Airport,YNJ,Canada
1828,CYNL,medium_airport,Points North Landing Airport,58.27669906616211,-104.08200073242188,1605.0,,CA,CA-SK,Points North Landing,yes,CYNL,YNL,,,https://en.wikipedia.org/wiki/Points_North_Landing_Airport,,Canada
1829,CYNM,medium_airport,Matagami Airport,49.76169967651367,-77.80280303955078,918.0,,CA,CA-QC,Matagami,no,CYNM,YNM,,,https://en.wikipedia.org/wiki/Matagami_Airport,,Canada
1830,CYNN,medium_airport,Nejanilini Lake Airport,59.4874992371,-97.7802963257,1000.0,,CA,CA-MB,Nejanilini Lake,no,CYNN,,,,https://en.wikipedia.org/wiki/Nejanilini_Lake_Airport,,Canada
1832,CYOA,medium_airport,Ekati Airport,64.6988983154,-110.614997864,1536.0,,CA,CA-NT,Ekati,no,CYOA,YOA,,,https://en.wikipedia.org/wiki/Ekati_Airport,YOA,Canada
1834,CYOD,medium_airport,CFB Cold Lake,54.40499877929688,-110.27899932861328,1775.0,,CA,CA-AB,Cold Lake,no,CYOD,YOD,,,https://en.wikipedia.org/wiki/CFB_Cold_Lake,,Canada
1836,CYOJ,medium_airport,High Level Airport,58.62139892578125,-117.16500091552734,1110.0,,CA,CA-AB,High Level,yes,CYOJ,YOJ,,,https://en.wikipedia.org/wiki/High_Level_Airport,,Canada
1837,CYOO,medium_airport,Oshawa Executive Airport,43.922798,-78.894997,460.0,,CA,CA-ON,Oshawa,no,CYOO,YOO,CYOO,http://www.oshawa-airport.com/,https://en.wikipedia.org/wiki/Oshawa_Airport,,Canada
1838,CYOP,medium_airport,Rainbow Lake Airport,58.491402,-119.407997,1759.0,,CA,CA-AB,Rainbow Lake,no,CYOP,YOP,,,https://en.wikipedia.org/wiki/Rainbow_Lake_Airport,,Canada
1839,CYOS,medium_airport,Owen Sound / Billy Bishop Regional Airport,44.5903015137,-80.8375015259,1007.0,,CA,CA-ON,Owen Sound,no,CYOS,YOS,,,https://en.wikipedia.org/wiki/Owen_Sound/Billy_Bishop_Regional_Airport,YOS,Canada
1840,CYOW,large_airport,Ottawa Macdonald-Cartier International Airport,45.322498,-75.669197,374.0,,CA,CA-ON,Ottawa,yes,CYOW,YOW,YOW,https://yow.ca/,https://en.wikipedia.org/wiki/Ottawa_Macdonald%E2%80%93Cartier_International_Airport,"Uplands, UUP, CUUP",Canada
1842,CYPA,medium_airport,Prince Albert Glass Field,53.2141990662,-105.672996521,1405.0,,CA,CA-SK,Prince Albert,yes,CYPA,YPA,,,https://en.wikipedia.org/wiki/Prince_Albert_(Glass_Field)_Airport,,Canada
1844,CYPD,medium_airport,Port Hawkesbury Airport,45.6567001343,-61.3680992126,377.0,,CA,CA-NS,Port Hawkesbury,no,CYPD,YPS,,http://www.porthawkesburyairport.com/,https://en.wikipedia.org/wiki/Port_Hawkesbury_Airport,YPD,Canada
1845,CYPE,medium_airport,Peace River Airport,56.226898,-117.446999,1873.0,,CA,CA-AB,Peace River,yes,CYPE,YPE,,,https://en.wikipedia.org/wiki/Peace_River_Airport,,Canada
1846,CYPG,medium_airport,Portage-la-Prairie / Southport Airport,49.903099,-98.273817,885.0,,CA,CA-MB,Portage la Prairie,no,CYPG,YPG,,http://southport.ca/,https://en.wikipedia.org/wiki/Portage_La_Prairie/Southport_Airport,,Canada
1848,CYPK,medium_airport,Pitt Meadows Airport,49.216099,-122.709999,11.0,,CA,CA-BC,Pitt Meadows,yes,CYPK,,,,https://en.wikipedia.org/wiki/Pitt_Meadows_Airport,YPK,Canada
1849,CYPL,medium_airport,Pickle Lake Airport,51.4463996887207,-90.21420288085938,1267.0,,CA,CA-ON,Pickle Lake,yes,CYPL,YPL,,,https://en.wikipedia.org/wiki/Pickle_Lake_Airport,,Canada
1851,CYPN,medium_airport,Port-Menier Airport,49.836399,-64.288597,167.0,,CA,CA-QC,Port-Menier,yes,CYPN,YPN,,,https://en.wikipedia.org/wiki/Port-Menier_Airport,,Canada
1854,CYPQ,medium_airport,Peterborough Municipal Airport,44.23,-78.363297,628.0,,CA,CA-ON,Peterborough,no,CYPQ,YPQ,,,https://en.wikipedia.org/wiki/Peterborough_Airport,,Canada
1855,CYPR,medium_airport,Prince Rupert Airport,54.2860984802,-130.445007324,116.0,,CA,CA-BC,Prince Rupert,yes,CYPR,YPR,,http://www.ypr.ca/,https://en.wikipedia.org/wiki/Prince_Rupert_Airport,,Canada
1859,CYPW,medium_airport,Powell River Airport,49.83420181274414,-124.5,425.0,,CA,CA-BC,Powell River,yes,CYPW,YPW,,,https://en.wikipedia.org/wiki/Powell_River_Airport,,Canada
1860,CYPX,medium_airport,Puvirnituq Airport,60.050598,-77.286903,74.0,,CA,CA-QC,Puvirnituq,yes,CYPX,YPX,,,https://en.wikipedia.org/wiki/Puvirnituq_Airport,,Canada
1861,CYPY,medium_airport,Fort Chipewyan Airport,58.7672004699707,-111.11699676513672,761.0,,CA,CA-AB,Fort Chipewyan,yes,CYPY,YPY,,,https://en.wikipedia.org/wiki/Fort_Chipewyan_Airport,,Canada
1862,CYPZ,medium_airport,Burns Lake Airport,54.3764,-125.950996,2343.0,,CA,CA-BC,Burns Lake,yes,CYPZ,YPZ,YPZ,,https://en.wikipedia.org/wiki/Burns_Lake_Airport,YPZ,Canada
1863,CYQA,medium_airport,Muskoka Airport,44.974757,-79.306526,925.0,,CA,CA-ON,Muskoka,yes,CYQA,YQA,,,https://en.wikipedia.org/wiki/Muskoka_Airport,,Canada
1864,CYQB,large_airport,Quebec Jean Lesage International Airport,46.7911,-71.393303,244.0,,CA,CA-QC,Quebec,yes,CYQB,YQB,YQB,http://www.aeroportdequebec.com/,https://en.wikipedia.org/wiki/Qu%C3%A9bec/Jean_Lesage_International_Airport,Quebec City,Canada
1865,CYQD,medium_airport,The Pas Airport,53.97140121459961,-101.09100341796876,887.0,,CA,CA-MB,The Pas,yes,CYQD,YQD,,,https://en.wikipedia.org/wiki/The_Pas_Airport,,Canada
1866,CYQF,medium_airport,Red Deer Regional Airport,52.182201,-113.893997,2968.0,,CA,CA-AB,Springbrook,no,CYQF,YQF,,,https://en.wikipedia.org/wiki/Red_Deer_Regional_Airport,,Canada
1867,CYQG,medium_airport,Windsor Airport,42.27560043334961,-82.95559692382812,622.0,,CA,CA-ON,Windsor,yes,CYQG,YQG,,,https://en.wikipedia.org/wiki/Windsor_Airport,,Canada
1868,CYQH,medium_airport,Watson Lake Airport,60.116839,-128.821993,2255.0,,CA,CA-YT,Watson Lake,yes,CYQH,YQH,,,https://en.wikipedia.org/wiki/Watson_Lake_Airport,,Canada
1869,CYQI,medium_airport,Yarmouth Airport,43.82690048217773,-66.08809661865234,141.0,,CA,CA-NS,Yarmouth,no,CYQI,YQI,,,https://en.wikipedia.org/wiki/Yarmouth_Airport,,Canada
1870,CYQK,medium_airport,Kenora Airport,49.78829956054688,-94.36309814453124,1332.0,,CA,CA-ON,Kenora,yes,CYQK,YQK,,,https://en.wikipedia.org/wiki/Kenora_Airport,,Canada
1871,CYQL,medium_airport,Lethbridge County Airport,49.6302986145,-112.800003052,3048.0,,CA,CA-AB,Lethbridge,yes,CYQL,YQL,,,https://en.wikipedia.org/wiki/Lethbridge_County_Airport,Kenyon Field,Canada
1872,CYQM,medium_airport,Greater Moncton Roméo LeBlanc International Airport,46.112202,-64.678596,232.0,,CA,CA-NB,Moncton,yes,CYQM,YQM,,https://cyqm.ca/,https://en.wikipedia.org/wiki/Greater_Moncton_International_Airport,"CYQM, YQM, Moncton",Canada
1873,CYQN,medium_airport,Nakina Airport,50.18280029296875,-86.69640350341797,1057.0,,CA,CA-ON,Nakina,yes,CYQN,YQN,,,https://en.wikipedia.org/wiki/Nakina_Airport,,Canada
1874,CYQQ,medium_airport,Comox Valley Airport / CFB Comox,49.7108,-124.887001,84.0,,CA,CA-BC,Comox,yes,CYQQ,YQQ,,,https://en.wikipedia.org/wiki/CFB_Comox,CFB Comox,Canada
1875,CYQR,medium_airport,Regina International Airport,50.43190002441406,-104.66600036621094,1894.0,,CA,CA-SK,Regina,yes,CYQR,YQR,,,https://en.wikipedia.org/wiki/Regina_International_Airport,"YQR, Roland J. Groome International",Canada
1876,CYQS,medium_airport,St Thomas Municipal Airport,42.77000045776367,-81.11080169677734,778.0,,CA,CA-ON,St Thomas,no,CYQS,YQS,,,https://en.wikipedia.org/wiki/St._Thomas_Airport,,Canada
1877,CYQT,medium_airport,Thunder Bay Airport,48.37189865112305,-89.32389831542969,653.0,,CA,CA-ON,Thunder Bay,yes,CYQT,YQT,,,https://en.wikipedia.org/wiki/Thunder_Bay_International_Airport,,Canada
1878,CYQU,medium_airport,Grande Prairie Airport,55.1796989441,-118.885002136,2195.0,,CA,CA-AB,Grande Prairie,yes,CYQU,YQU,,http://www.grandeprairieairport.com/,https://en.wikipedia.org/wiki/Grande_Prairie_Airport,,Canada
1879,CYQV,medium_airport,Yorkton Municipal Airport,51.26470184326172,-102.46199798583984,1635.0,,CA,CA-SK,Yorkton,no,CYQV,YQV,,,https://en.wikipedia.org/wiki/Yorkton_Municipal_Airport,,Canada
1880,CYQW,medium_airport,North Battleford Airport,52.769409,-108.243742,1799.0,,CA,CA-SK,North Battleford,no,CYQW,YQW,,,https://en.wikipedia.org/wiki/North_Battleford_(Cameron_McIntosh)_Airport,,Canada
1881,CYQX,medium_airport,Gander International Airport / CFB Gander,48.936258,-54.567719,496.0,,CA,CA-NL,Gander,yes,CYQX,YQX,,,https://en.wikipedia.org/wiki/Gander_International_Airport,CFB Gander,Canada
1882,CYQY,medium_airport,Sydney / J.A. Douglas McCurdy Airport,46.1614,-60.047798,203.0,,CA,CA-NS,Sydney,yes,CYQY,YQY,,http://www.sydneyairport.ca/,https://en.wikipedia.org/wiki/Sydney/J.A._Douglas_McCurdy_Airport,,Canada
1883,CYQZ,medium_airport,Quesnel Airport,53.026100158691406,-122.51000213623048,1789.0,,CA,CA-BC,Quesnel,yes,CYQZ,YQZ,,,https://en.wikipedia.org/wiki/Quesnel_Airport,,Canada
1885,CYRB,medium_airport,Resolute Bay Airport,74.7169036865,-94.9693984985,215.0,,CA,CA-NU,Resolute Bay,yes,CYRB,YRB,,,https://en.wikipedia.org/wiki/Resolute_Bay_Airport,,Canada
1887,CYRI,medium_airport,Rivière-du-Loup Airport,47.76440048217773,-69.58470153808594,427.0,,CA,CA-QC,Rivière-du-Loup,no,CYRI,YRI,,http://www.ville.riviere-du-loup.qc.ca/anglais/aeroport.php,https://en.wikipedia.org/wiki/Rivi%C3%A8re-du-Loup_Airport,,Canada
1888,CYRJ,medium_airport,Roberval Airport,48.52000045776367,-72.2656021118164,586.0,,CA,CA-QC,Roberval,yes,CYRJ,YRJ,,,https://en.wikipedia.org/wiki/Roberval_Airport,,Canada
1889,CYRL,medium_airport,Red Lake Airport,51.06689834594727,-93.79309844970705,1265.0,,CA,CA-ON,Red Lake,yes,CYRL,YRL,,,https://en.wikipedia.org/wiki/Red_Lake_Airport,,Canada
1891,CYRO,medium_airport,Ottawa / Rockcliffe Airport,45.4603004456,-75.64610290530001,188.0,,CA,CA-ON,Ottawa,no,CYRO,YRO,CYRO,http://www.rfc.ca/,https://en.wikipedia.org/wiki/Ottawa/Rockcliffe_Airport,YRO,Canada
1892,CYRP,medium_airport,Ottawa / Carp Airport,45.3191986084,-76.0222015381,382.0,,CA,CA-ON,Ottawa,no,CYRP,,YRP,http://www.cyrp.ca/,https://en.wikipedia.org/wiki/Ottawa/Carp_Airport,YRP,Canada
1893,CYRQ,medium_airport,Trois-Rivières Airport,46.35279846191406,-72.67939758300781,199.0,,CA,CA-QC,Trois-Rivières,no,CYRQ,YRQ,,,https://en.wikipedia.org/wiki/Trois-Rivi%C3%A8res_Airport,,Canada
1895,CYRT,medium_airport,Rankin Inlet Airport,62.8114013672,-92.1157989502,94.0,,CA,CA-NU,Rankin Inlet,yes,CYRT,YRT,,,https://en.wikipedia.org/wiki/Rankin_Inlet_Airport,,Canada
1896,CYRV,medium_airport,Revelstoke Airport,50.962245,-118.184258,1459.0,,CA,CA-BC,Revelstoke,no,CYRV,YRV,,,https://en.wikipedia.org/wiki/Revelstoke_Airport,YRV,Canada
1897,CYSB,medium_airport,Sudbury Airport,46.625,-80.79889678955078,1141.0,,CA,CA-ON,Sudbury,yes,CYSB,YSB,,,https://en.wikipedia.org/wiki/Sudbury_Airport,,Canada
1898,CYSC,medium_airport,Sherbrooke Airport,45.438599,-71.691399,792.0,,CA,CA-QC,Sherbrooke,no,CYSC,YSC,,,https://en.wikipedia.org/wiki/Sherbrooke_Airport,,Canada
1901,CYSF,medium_airport,Stony Rapids Airport,59.250301361083984,-105.84100341796876,805.0,,CA,CA-SK,Stony Rapids,yes,CYSF,YSF,,,https://en.wikipedia.org/wiki/Stony_Rapids_Airport,,Canada
1902,CYSG,medium_airport,Saint-Georges Airport,46.096401,-70.714699,893.0,,CA,CA-QC,Saint-Georges,no,CYSG,,,,https://en.wikipedia.org/wiki/St-Georges_Airport,"YSG, SX3, St Georges",Canada
1903,CYSH,medium_airport,Smiths Falls-Montague (Russ Beach) Airport,44.945801,-75.940598,416.0,,CA,CA-ON,Smiths Falls,no,CYSH,YSH,,http://www.smithsfallsflyingclub.com/,https://en.wikipedia.org/wiki/Smiths_Falls-Montague_Airport,Smith Falls,Canada
1904,CYSJ,medium_airport,Saint John Airport,45.31610107421875,-65.89029693603516,357.0,,CA,CA-NB,Saint John,yes,CYSJ,YSJ,,,https://en.wikipedia.org/wiki/Saint_John_Airport,,Canada
1906,CYSL,medium_airport,Saint-Léonard Airport,47.157097,-67.836242,793.0,,CA,CA-NB,Saint-Léonard,no,CYSL,YSL,,,https://en.wikipedia.org/wiki/St._Leonard_Airport,"St. Leonard, St Leonard",Canada
1907,CYSM,medium_airport,Fort Smith Airport,60.020302,-111.961998,671.0,,CA,CA-NT,Fort Smith,yes,CYSM,YSM,,,https://en.wikipedia.org/wiki/Fort_Smith_Airport,,Canada
1908,CYSN,medium_airport,Niagara District Airport,43.191598,-79.171686,321.0,,CA,CA-ON,Niagara-on-the-Lake,yes,CYSN,YCM,,,https://en.wikipedia.org/wiki/St._Catharines/Niagara_District_Airport,"YSN, Saint Catharines",Canada
1909,CYSP,medium_airport,Marathon Airport,48.75529861450195,-86.34439849853516,1035.0,,CA,CA-ON,Marathon,no,CYSP,YSP,,,https://en.wikipedia.org/wiki/Marathon_Airport_(Canada),,Canada
1913,CYSU,medium_airport,Summerside Airport,46.440601,-63.833599,56.0,,CA,CA-PE,Slemon Park,no,CYSU,YSU,,,https://en.wikipedia.org/wiki/Summerside_Airport,PEI,Canada
1917,CYTA,medium_airport,Pembroke Airport,45.86439895629883,-77.25170135498047,529.0,,CA,CA-ON,Pembroke,no,CYTA,YTA,,http://www.flycyta.ca/,https://en.wikipedia.org/wiki/Pembroke_Airport,,Canada
1919,CYTF,medium_airport,Alma Airport,48.5089,-71.641899,445.0,,CA,CA-QC,Alma,no,CYTF,YTF,,,https://en.wikipedia.org/wiki/Alma_Airport,,Canada
1920,CYTH,medium_airport,Thompson Airport,55.80110168457031,-97.86419677734376,729.0,,CA,CA-MB,Thompson,yes,CYTH,YTH,,,https://en.wikipedia.org/wiki/Thompson_Airport,,Canada
1924,CYTR,medium_airport,CFB Trenton,44.118900299072266,-77.5280990600586,283.0,,CA,CA-ON,Trenton,no,CYTR,YTR,,,https://en.wikipedia.org/wiki/CFB_Trenton,,Canada
1925,CYTS,medium_airport,Timmins/Victor M. Power,48.5696983337,-81.376701355,967.0,,CA,CA-ON,Timmins,yes,CYTS,YTS,,http://portal.timmins.ca/portal/en/timmins/residents/airport,https://en.wikipedia.org/wiki/Timmins_Airport,Timmins Victor M. Power Airport,Canada
1926,CYTZ,medium_airport,Billy Bishop Toronto City Centre Airport,43.627499,-79.396202,252.0,,CA,CA-ON,Toronto,yes,CYTZ,YTZ,,http://www.torontoport.com/airport.aspx,https://en.wikipedia.org/wiki/Toronto_City_Centre_Airport,"YTO, Toronto Island Airport",Canada
1928,CYUL,large_airport,Montreal / Pierre Elliott Trudeau International Airport,45.467837,-73.742294,118.0,,CA,CA-QC,Montréal,yes,CYUL,YUL,YUL,http://www.admtl.com/passager/Home.aspx,https://en.wikipedia.org/wiki/Montr%C3%A9al-Pierre_Elliott_Trudeau_International_Airport,"YMQ, Dorval Airport",Canada
1930,CYUX,medium_airport,Hall Beach Airport,68.7761,-81.2425,30.0,,CA,CA-NU,Sanirajak,yes,CYUX,YUX,,,https://en.wikipedia.org/wiki/Hall_Beach_Airport,,Canada
1931,CYUY,medium_airport,Rouyn Noranda Airport,48.20610046386719,-78.83560180664062,988.0,,CA,CA-QC,Rouyn-Noranda,yes,CYUY,YUY,,,https://en.wikipedia.org/wiki/Rouyn-Noranda_Airport,,Canada
1932,CYVB,medium_airport,Bonaventure Airport,48.071098,-65.460297,123.0,,CA,CA-QC,Bonaventure,yes,CYVB,YVB,,,https://en.wikipedia.org/wiki/Bonaventure_Airport,,Canada
1933,CYVC,medium_airport,La Ronge Airport,55.1514015198,-105.262001038,1242.0,,CA,CA-SK,La Ronge,yes,CYVC,YVC,,,https://en.wikipedia.org/wiki/La_Ronge_(Barber_Field)_Airport,,Canada
1934,CYVD,medium_airport,Virden / RJ (Bob) Andrew Field Regional Aerodrome,49.8783,-100.917999,1454.0,,CA,CA-MB,Virden,no,CYVD,,YVD,,https://en.wikipedia.org/wiki/Virden_Airport,,Canada
1936,CYVK,medium_airport,Vernon Airport,50.24810028076172,-119.33100128173828,1140.0,,CA,CA-BC,Vernon,no,CYVK,YVE,,,https://en.wikipedia.org/wiki/Vernon_Regional_Airport,YVK,Canada
1938,CYVO,medium_airport,Val-d'Or Airport,48.0532989502,-77.7827987671,1107.0,,CA,CA-QC,Val-d'Or,yes,CYVO,YVO,,http://www.arvo.qc.ca/,https://en.wikipedia.org/wiki/Val-d'Or_Airport,,Canada
1939,CYVP,medium_airport,Kuujjuaq Airport,58.096099853515625,-68.4269027709961,129.0,,CA,CA-QC,Kuujjuaq,yes,CYVP,YVP,,,https://en.wikipedia.org/wiki/Kuujjuaq_Airport,,Canada
1940,CYVQ,medium_airport,Norman Wells Airport,65.28160095214844,-126.7979965209961,238.0,,CA,CA-NT,Norman Wells,yes,CYVQ,YVQ,,,https://en.wikipedia.org/wiki/Norman_Wells_Airport,,Canada
1941,CYVR,large_airport,Vancouver International Airport,49.193901062,-123.183998108,14.0,,CA,CA-BC,Vancouver,yes,CYVR,YVR,,http://www.yvr.ca/,https://en.wikipedia.org/wiki/Vancouver_International_Airport,,Canada
1943,CYVV,medium_airport,Wiarton Airport,44.7458,-81.107201,729.0,,CA,CA-ON,Wiarton,yes,CYVV,YVV,,http://wiartonairport.ca/,https://en.wikipedia.org/wiki/Wiarton_Airport,,Canada
1945,CYWA,medium_airport,Petawawa Airport,45.95220184326172,-77.31919860839844,427.0,,CA,CA-ON,Petawawa,no,CYWA,YWA,,,https://en.wikipedia.org/wiki/Petawawa_Airport,,Canada
1946,CYWG,large_airport,Winnipeg / James Armstrong Richardson International Airport,49.9099998474,-97.2398986816,783.0,,CA,CA-MB,Winnipeg,yes,CYWG,YWG,YWG,http://www.waa.ca/,https://en.wikipedia.org/wiki/Winnipeg_James_Armstrong_Richardson_International_Airport,CFB Winnipeg,Canada
1949,CYWK,medium_airport,Wabush Airport,52.92190170288086,-66.8644027709961,1808.0,,CA,CA-NL,Wabush,yes,CYWK,YWK,,,https://en.wikipedia.org/wiki/Wabush_Airport,,Canada
1950,CYWL,medium_airport,Williams Lake Airport,52.1831016541,-122.054000854,3085.0,,CA,CA-BC,Williams Lake,yes,CYWL,YWL,,,https://en.wikipedia.org/wiki/Williams_Lake_Airport,,Canada
1954,CYWY,medium_airport,Wrigley Airport,63.20940017700195,-123.43699645996094,489.0,,CA,CA-NT,Wrigley,no,CYWY,YWY,,,https://en.wikipedia.org/wiki/Wrigley_Airport,,Canada
1955,CYXC,medium_airport,Cranbrook/Canadian Rockies International Airport,49.610801696777,-115.78199768066,3082.0,,CA,CA-BC,Cranbrook,yes,CYXC,YXC,,,https://en.wikipedia.org/wiki/Cranbrook/Canadian_Rockies_International_Airport,,Canada
1957,CYXE,medium_airport,Saskatoon John G. Diefenbaker International Airport,52.17079925537109,-106.6999969482422,1653.0,,CA,CA-SK,Saskatoon,yes,CYXE,YXE,,,https://en.wikipedia.org/wiki/Saskatoon/John_G._Diefenbaker_International_Airport,,Canada
1958,CYXH,medium_airport,Medicine Hat Regional Airport,50.018902,-110.721001,2352.0,,CA,CA-AB,Medicine Hat,yes,CYXH,YXH,,,https://en.wikipedia.org/wiki/Medicine_Hat_Airport,,Canada
1959,CYXJ,medium_airport,Fort St John / North Peace Regional Airport,56.238098,-120.739998,2280.0,,CA,CA-BC,Fort Saint John,yes,CYXJ,YXJ,,,https://en.wikipedia.org/wiki/Fort_St._John_Airport,BZ3,Canada
1960,CYXK,medium_airport,Rimouski Airport,48.477644,-68.496323,82.0,,CA,CA-QC,Rimouski,yes,CYXK,YXK,,,https://en.wikipedia.org/wiki/Rimouski_Airport,,Canada
1961,CYXL,medium_airport,Sioux Lookout Airport,50.11389923095703,-91.9052963256836,1258.0,,CA,CA-ON,Sioux Lookout,yes,CYXL,YXL,,,https://en.wikipedia.org/wiki/Sioux_Lookout_Airport,,Canada
1964,CYXQ,medium_airport,Beaver Creek Airport,62.410301208496094,-140.86700439453125,2131.0,,CA,CA-YT,Beaver Creek,no,CYXQ,YXQ,,,https://en.wikipedia.org/wiki/Beaver_Creek_Airport,,Canada
1965,CYXR,medium_airport,Earlton (Timiskaming Regional) Airport,47.6974006546,-79.8473453522,800.0,,CA,CA-ON,Earlton,no,CYXR,YXR,,,https://en.wikipedia.org/wiki/Earlton_(Timiskaming_Regional)_Airport,yxr,Canada
1966,CYXS,medium_airport,Prince George Airport,53.884311,-122.666554,2267.0,,CA,CA-BC,Prince George,yes,CYXS,YXS,,https://www.pgairport.ca/,https://en.wikipedia.org/wiki/Prince_George_Airport,Prince George International,Canada
1967,CYXT,medium_airport,Northwest Regional Airport Terrace-Kitimat,54.468498,-128.576009,713.0,,CA,CA-BC,Terrace,yes,CYXT,YXT,,,https://en.wikipedia.org/wiki/Terrace_Airport,,Canada
1968,CYXU,medium_airport,London Airport,43.035599,-81.1539,912.0,,CA,CA-ON,London,yes,CYXU,YXU,,http://www.londonairport.on.ca/,https://en.wikipedia.org/wiki/London_International_Airport,,Canada
1969,CYXX,medium_airport,Abbotsford International Airport,49.025299,-122.361,195.0,,CA,CA-BC,Abbotsford,yes,CYXX,YXX,,http://www.abbotsfordairport.ca/,https://en.wikipedia.org/wiki/Abbotsford_International_Airport,,Canada
1970,CYXY,medium_airport,Whitehorse / Erik Nielsen International Airport,60.709599,-135.067001,2317.0,,CA,CA-YT,Whitehorse,yes,CYXY,YXY,,,https://en.wikipedia.org/wiki/Whitehorse_International_Airport,,Canada
1971,CYXZ,medium_airport,Wawa Airport,47.96670150756836,-84.78669738769531,942.0,,CA,CA-ON,Wawa,no,CYXZ,YXZ,,,https://en.wikipedia.org/wiki/Wawa_Airport,,Canada
1972,CYYB,medium_airport,North Bay Jack Garland Airport,46.363602,-79.422798,1215.0,,CA,CA-ON,North Bay,yes,CYYB,YYB,,https://yyb.ca/,https://en.wikipedia.org/wiki/North_Bay/Jack_Garland_Airport,"Jack Garland Airport, CFB North Bay",Canada
1973,CYYC,large_airport,Calgary International Airport,51.118822,-114.009933,3557.0,,CA,CA-AB,Calgary,yes,CYYC,YYC,,http://www.calgaryairport.com/,https://en.wikipedia.org/wiki/Calgary_International_Airport,McCall Field,Canada
1974,CYYD,medium_airport,Smithers Airport,54.82469940185547,-127.18299865722656,1712.0,,CA,CA-BC,Smithers,yes,CYYD,YYD,,,https://en.wikipedia.org/wiki/Smithers_Airport,,Canada
1975,CYYE,medium_airport,Fort Nelson Airport,58.8363990784,-122.597000122,1253.0,,CA,CA-BC,Fort Nelson,yes,CYYE,YYE,,,https://en.wikipedia.org/wiki/Fort_Nelson_Airport,,Canada
1976,CYYF,medium_airport,Penticton Airport,49.46310043334961,-119.60199737548828,1129.0,,CA,CA-BC,Penticton,yes,CYYF,YYF,,,https://en.wikipedia.org/wiki/Penticton_Regional_Airport,,Canada
1977,CYYG,medium_airport,Charlottetown Airport,46.290000915527344,-63.12110137939453,160.0,,CA,CA-PE,Charlottetown,yes,CYYG,YYG,,,https://en.wikipedia.org/wiki/Charlottetown_Airport,PEI,Canada
1979,CYYJ,medium_airport,Victoria International Airport,48.647201,-123.427792,63.0,,CA,CA-BC,Victoria,yes,CYYJ,YYJ,,http://www.victoriaairport.com/,https://en.wikipedia.org/wiki/Victoria_International_Airport,,Canada
1980,CYYL,medium_airport,Lynn Lake Airport,56.86389923095703,-101.07599639892578,1170.0,,CA,CA-MB,Lynn Lake,yes,CYYL,YYL,,,https://en.wikipedia.org/wiki/Lynn_Lake_Airport,,Canada
1982,CYYN,medium_airport,Swift Current Airport,50.2919006348,-107.691001892,2680.0,,CA,CA-SK,Swift Current,no,CYYN,YYN,,http://www.swiftcurrentairport.com/,https://en.wikipedia.org/wiki/Swift_Current_Airport,YYN,Canada
1984,CYYQ,medium_airport,Churchill Airport,58.739200592041016,-94.06500244140624,94.0,,CA,CA-MB,Churchill,yes,CYYQ,YYQ,,,https://en.wikipedia.org/wiki/Churchill_Airport,,Canada
1985,CYYR,medium_airport,Goose Bay Airport,53.3191986084,-60.4258003235,160.0,,CA,CA-NL,Goose Bay,yes,CYYR,YYR,,,https://en.wikipedia.org/wiki/CFB_Goose_Bay,CFB Goose Bay,Canada
1986,CYYT,large_airport,St. John's International Airport,47.618599,-52.7519,461.0,,CA,CA-NL,St. John's,yes,CYYT,YYT,,https://www.stjohnsairport.com/,https://en.wikipedia.org/wiki/St._John's_International_Airport,,Canada
1987,CYYU,medium_airport,Kapuskasing Airport,49.411587,-82.469645,743.0,,CA,CA-ON,Kapuskasing,no,CYYU,YYU,,,https://en.wikipedia.org/wiki/Kapuskasing_Airport,,Canada
1988,CYYW,medium_airport,Armstrong Airport,50.29029846191406,-88.90969848632812,1058.0,,CA,CA-ON,Armstrong,no,CYYW,YYW,,,https://en.wikipedia.org/wiki/Armstrong_Airport,,Canada
1989,CYYY,medium_airport,Mont Joli Airport,48.60860061645508,-68.20809936523438,172.0,,CA,CA-QC,Mont-Joli,yes,CYYY,YYY,,,https://en.wikipedia.org/wiki/Mont-Joli_Airport,,Canada
1990,CYYZ,large_airport,Toronto Lester B. Pearson International Airport,43.6772,-79.6306,569.0,,CA,CA-ON,Toronto,yes,CYYZ,YYZ,YYZ,http://www.gtaa.com/,https://en.wikipedia.org/wiki/Toronto_Pearson_International_Airport,"YTO, Toronto International Airport, Malton",Canada
1991,CYZD,medium_airport,Downsview Airport,43.7425,-79.465599,652.0,,CA,CA-ON,Toronto,no,CYZD,,,,https://en.wikipedia.org/wiki/Toronto/Downsview_Airport,YZD,Canada
1992,CYZE,medium_airport,Gore Bay Manitoulin Airport,45.8853,-82.567802,623.0,,CA,CA-ON,Gore Bay,no,CYZE,YZE,,,https://en.wikipedia.org/wiki/Gore_Bay-Manitoulin_Airport,,Canada
1993,CYZF,medium_airport,Yellowknife International Airport,62.462799,-114.440002,675.0,,CA,CA-NT,Yellowknife,yes,CYZF,YZF,,,https://en.wikipedia.org/wiki/Yellowknife_Airport,,Canada
1995,CYZH,medium_airport,Slave Lake Airport,55.2930984497,-114.777000427,1912.0,,CA,CA-AB,Slave Lake,no,CYZH,YZH,,http://slavelakeairport.com,https://en.wikipedia.org/wiki/Slave_Lake_Airport,YZH,Canada
1996,CYZP,medium_airport,Sandspit Airport,53.25429916379999,-131.813995361,21.0,,CA,CA-BC,Sandspit,yes,CYZP,YZP,,,https://en.wikipedia.org/wiki/Sandspit_Airport,"Queen Charlotte Islands, Haida Gwaii",Canada
1997,CYZR,medium_airport,Chris Hadfield Airport,42.999401,-82.308899,594.0,,CA,CA-ON,Sarnia,no,CYZR,YZR,,,https://en.wikipedia.org/wiki/Sarnia_(Chris_Hadfield)_Airport,,Canada
1998,CYZS,medium_airport,Coral Harbour Airport,64.1932983398,-83.3593978882,210.0,,CA,CA-NU,Coral Harbour,yes,CYZS,YZS,,,https://en.wikipedia.org/wiki/Coral_Harbour_Airport,,Canada
1999,CYZT,medium_airport,Port Hardy Airport,50.68059921264648,-127.36699676513672,71.0,,CA,CA-BC,Port Hardy,yes,CYZT,YZT,,,https://en.wikipedia.org/wiki/Port_Hardy_Airport,,Canada
2000,CYZU,medium_airport,Whitecourt Airport,54.143902,-115.787003,2567.0,,CA,CA-AB,Whitecourt,yes,CYZU,YZU,,,https://en.wikipedia.org/wiki/Whitecourt_Airport,,Canada
2001,CYZV,medium_airport,Sept-Îles Airport,50.22330093383789,-66.2656021118164,180.0,,CA,CA-QC,Sept-Îles,yes,CYZV,YZV,,,https://en.wikipedia.org/wiki/Sept-%C3%8Eles_Airport,,Canada
2002,CYZW,medium_airport,Teslin Airport,60.17279815673828,-132.7429962158203,2313.0,,CA,CA-YT,Teslin,no,CYZW,YZW,,,https://en.wikipedia.org/wiki/Teslin_Airport,,Canada
2003,CYZX,medium_airport,CFB Greenwood,44.98440170288086,-64.91690063476562,92.0,,CA,CA-NS,Greenwood,no,CYZX,YZX,,,https://en.wikipedia.org/wiki/CFB_Greenwood,Greenwood Airport,Canada
2004,CYZY,medium_airport,Mackenzie Airport,55.297786,-123.133907,2264.0,,CA,CA-BC,Mackenzie,yes,CYZY,,,,https://en.wikipedia.org/wiki/Mackenzie_Airport,YZY,Canada
2006,CZAM,medium_airport,Shuswap Regional Airport,50.682802,-119.228996,1751.0,,CA,CA-BC,Salmon Arm,no,CZAM,YSN,,http://www.salmonarm.ca/index.aspx?nid=228,https://en.wikipedia.org/wiki/Salmon_Arm_Airport,"AM4, Shuswap Regional Airport, Salmon Arm Airport",Canada
2008,CZBB,medium_airport,Boundary Bay Airport,49.0742,-123.012001,6.0,,CA,CA-BC,Delta,no,CZBB,YDT,,http://http://czbb.com/,https://en.wikipedia.org/wiki/Boundary_Bay_Airport,ZBB,Canada
2010,CZBF,medium_airport,Bathurst Airport,47.6297,-65.738899,193.0,,CA,CA-NB,South Tetagouche,yes,CZBF,ZBF,,,https://en.wikipedia.org/wiki/Bathurst_Airport_(New_Brunswick),ZBF,Canada
2011,CZBM,medium_airport,Bromont (Roland Désourdy) Airport,45.290798,-72.741402,375.0,,CA,CA-QC,Bromont,no,CZBM,ZBM,,,https://en.wikipedia.org/wiki/Roland-D%C3%A9sourdy_Airport,,Canada
2012,CZEE,medium_airport,Kelsey Airport,56.0374984741,-96.5096969604,600.0,,CA,CA-MB,Kelsey,no,CZEE,KES,ZEE,,https://en.wikipedia.org/wiki/Kelsey_Airport,,Canada
2014,CZFA,medium_airport,Faro Airport,62.20750045776367,-133.37600708007812,2351.0,,CA,CA-YT,Faro,no,CZFA,ZFA,,,https://en.wikipedia.org/wiki/Faro_Airport_(Yukon),,Canada
2019,CZGF,medium_airport,Grand Forks Airport,49.015598,-118.431,1720.0,,CA,CA-BC,Grand Forks,no,CZGF,ZGF,,,https://en.wikipedia.org/wiki/Grand_Forks_Airport,,Canada
2023,CZJG,medium_airport,Jenpeg Airport,54.51890182495117,-98.0460968017578,729.0,,CA,CA-MB,Jenpeg,no,CZJG,ZJG,,,https://en.wikipedia.org/wiki/Jenpeg_Airport,,Canada
2024,CZJN,medium_airport,Swan River Airport,52.120602,-101.236,1100.0,,CA,CA-MB,Swan River,no,CZJN,ZJN,,,https://en.wikipedia.org/wiki/Swan_River_Airport,,Canada
2026,CZLQ,medium_airport,Thicket Portage Airport,55.31890106201172,-97.70780181884766,678.0,,CA,CA-MB,Thicket Portage,no,CZLQ,YTD,,,https://en.wikipedia.org/wiki/Thicket_Portage_Airport,ZLQ,Canada
2029,CZMN,medium_airport,Pikwitonei Airport,55.58890151977539,-97.16419982910156,630.0,,CA,CA-MB,Pikwitonei,no,CZMN,PIW,,,https://en.wikipedia.org/wiki/Pikwitonei_Airport,ZMN,Canada
2030,CZMT,medium_airport,Masset Airport,54.0275,-132.125,25.0,,CA,CA-BC,Masset,yes,CZMT,ZMT,,,https://en.wikipedia.org/wiki/Masset_Airport,,Canada
2034,CZPC,medium_airport,Pincher Creek Airport,49.520599365200006,-113.997001648,3903.0,,CA,CA-AB,Pincher Creek,no,CZPC,WPC,,,https://en.wikipedia.org/wiki/Pincher_Creek_Airport,ZPC,Canada
2037,CZSJ,medium_airport,Sandy Lake Airport,53.06420135498047,-93.34439849853516,951.0,,CA,CA-ON,Sandy Lake,yes,CZSJ,ZSJ,,,https://en.wikipedia.org/wiki/Sandy_Lake_Airport,,Canada
2039,CZST,medium_airport,Stewart Airport,55.935410448,-129.982434511,24.0,,CA,CA-BC,Stewart,no,CZST,ZST,CZST,,https://en.wikipedia.org/wiki/Stewart_Airport_(British_Columbia),,Canada
2042,CZUC,medium_airport,Ignace Municipal Airport,49.428204,-91.720418,1435.0,,CA,CA-ON,Ignace,no,CZUC,ZUC,,,https://en.wikipedia.org/wiki/Ignace_Municipal_Airport,,Canada
2047,DAAB,medium_airport,Blida Airport,36.503601,2.81417,535.0,AF,DZ,DZ-09,Blida,no,DAAB,QLD,,,https://en.wikipedia.org/wiki/Blida_Airport,,Algeria
2048,DAAD,medium_airport,Bou Saada Airport,35.3325,4.20639,1506.0,AF,DZ,DZ-28,Ouled Sidi Brahim,no,DAAD,BUJ,,,https://en.wikipedia.org/wiki/Bou_Saada_Airport,,Algeria
2049,DAAE,medium_airport,Soummam–Abane Ramdane Airport,36.711952,5.069804,20.0,AF,DZ,DZ-06,Béjaïa,yes,DAAE,BJA,BJ1,,https://en.wikipedia.org/wiki/Abane_Ramdane_Airport,"Béjaïa, Soummam",Algeria
2050,DAAG,large_airport,Houari Boumediene Airport,36.693886,3.214531,82.0,AF,DZ,DZ-16,Algiers,yes,DAAG,ALG,,,https://en.wikipedia.org/wiki/Houari_Boumediene_Airport,"Algiers, Maison Blanche",Algeria
2051,DAAJ,medium_airport,Djanet Inedbirene Airport,24.292801,9.45244,3176.0,AF,DZ,DZ-56,Djanet,yes,DAAJ,DJG,,,https://en.wikipedia.org/wiki/Djanet_Inedbirene_Airport,Tiska Djanet Airport,Algeria
2052,DAAK,medium_airport,Boufarik Air Base,36.545799,2.87611,335.0,AF,DZ,DZ-09,Boufarik,no,DAAK,,,,https://en.wikipedia.org/wiki/Boufarik_Airport,QFD,Algeria
2054,DAAP,medium_airport,Illizi Takhamalt Airport,26.723499,8.62265,1778.0,AF,DZ,DZ-33,Illizi,yes,DAAP,VVZ,,,https://en.wikipedia.org/wiki/Illizi_Airport,,Algeria
32193,DAAS,medium_airport,Ain Arnat Airport,36.178100585900005,5.32449007034,3360.0,AF,DZ,DZ-19,Sétif,yes,DAAS,QSF,,http://www.egsa-constantine.dz/,https://en.wikipedia.org/wiki/Ain_Arnat_Airport,"Sétif International Airport, 8 Mai 45 Airport",Algeria
2056,DAAT,medium_airport,Aguenar – Hadj Bey Akhamok Airport,22.811501,5.45108,4518.0,AF,DZ,DZ-11,Tamanrasset,yes,DAAT,TMR,,,https://en.wikipedia.org/wiki/Tamanrasset_Airport,,Algeria
2057,DAAV,medium_airport,Jijel Ferhat Abbas Airport,36.795101,5.87361,36.0,AF,DZ,DZ-18,Tahir,yes,DAAV,GJL,,,https://en.wikipedia.org/wiki/Jijel_Ferhat_Abbas_Airport,,Algeria
2058,DAAY,medium_airport,Mecheria Airport,33.535900116,-0.242353007197,3855.0,AF,DZ,DZ-45,Mecheria,no,DAAY,MZW,,,http://fr.wikipedia.org/wiki/A%C3%A9roport_de_Mecheria,,Algeria
2059,DAAZ,medium_airport,Relizane Airport,35.752955,0.625877,282.0,AF,DZ,DZ-48,Relizane,no,DAAZ,,,,https://en.wikipedia.org/wiki/Relizane_Airport,QZN,Algeria
2060,DABB,medium_airport,Annaba Rabah Bitat Airport,36.826781,7.81334,16.0,AF,DZ,DZ-23,Annaba,yes,DABB,AAE,,,https://en.wikipedia.org/wiki/Rabah_Bitat_Airport,"Les Salines Airport, El Mellah Airport, Annabah",Algeria
2061,DABC,medium_airport,Mohamed Boudiaf International Airport,36.2760009765625,6.620389938354492,2265.0,AF,DZ,DZ-25,Constantine,yes,DABC,CZL,,,https://en.wikipedia.org/wiki/Mohamed_Boudiaf_International_Airport,,Algeria
2062,DABS,medium_airport,Cheikh Larbi Tébessi Airport,35.4315986633,8.12071990967,2661.0,AF,DZ,DZ-12,Tébessi,yes,DABS,TEE,,,https://en.wikipedia.org/wiki/T%C3%A9bessa_Airport,,Algeria
2063,DABT,medium_airport,Batna Mostefa Ben Boulaid Airport,35.752102,6.30859,2697.0,AF,DZ,DZ-05,Batna,yes,DABT,BLJ,,,https://en.wikipedia.org/wiki/Batna_Airport,,Algeria
2064,DAFH,medium_airport,Hassi R'Mel Airport,32.930401,3.31154,2540.0,AF,DZ,DZ-03,Hassi R'Mel,yes,DAFH,HRM,,,https://en.wikipedia.org/wiki/Hassi_R'Mel_Airport,,Algeria
2065,DAOB,medium_airport,Abdelhafid Boussouf Bou Chekif Airport,35.341099,1.46315,3245.0,AF,DZ,DZ-14,Tiaret,no,DAOB,TID,,,https://en.wikipedia.org/wiki/Bou_Chekif_Airport,,Algeria
2067,DAOF,medium_airport,Tindouf Airport,27.7003993988,-8.167099952700001,1453.0,AF,DZ,DZ-37,Tindouf,yes,DAOF,TIN,,,https://en.wikipedia.org/wiki/Tindouf_Airport,,Algeria
2068,DAOI,medium_airport,Chlef Aboubakr Belkaid International Airport,36.217166,1.342237,463.0,AF,DZ,DZ-02,Chlef,yes,DAOI,CFK,,,https://en.wikipedia.org/wiki/Chlef_International_Airport,Ech Cheliff Airport,Algeria
2069,DAOL,medium_airport,Oran Tafraoui Airport,35.5424,-0.532278,367.0,AF,DZ,DZ-31,Tafraoui,no,DAOL,TAF,,,https://en.wikipedia.org/wiki/Oran_Tafraoui_Airport,,Algeria
2070,DAON,medium_airport,Zenata – Messali El Hadj Airport,35.013426,-1.457191,814.0,AF,DZ,DZ-13,Zenata,yes,DAON,TLM,,,https://en.wikipedia.org/wiki/Zenata_%E2%80%93_Messali_El_Hadj_Airport,Tlemcen,Algeria
2071,DAOO,medium_airport,Oran Es-Sénia (Ahmed Ben Bella) International Airport,35.623901,-0.621183,295.0,AF,DZ,DZ-31,Es-Sénia,yes,DAOO,ORN,,,https://en.wikipedia.org/wiki/Oran_Es_Senia_Airport,Es Senia,Algeria
2072,DAOR,medium_airport,Béchar Boudghene Ben Ali Lotfi Airport,31.645700454711918,-2.269860029220581,2661.0,AF,DZ,DZ-08,Béchar,yes,DAOR,CBH,,,https://en.wikipedia.org/wiki/B%C3%A9char_Ouakda_Airport,Béchar Ouakda Airport,Algeria
2074,DAOV,medium_airport,Ghriss Airport,35.207699,0.147142,1686.0,AF,DZ,DZ-29,Ghriss,no,DAOV,MUW,,,https://en.wikipedia.org/wiki/Ghriss_Airport,,Algeria
2075,DAUA,medium_airport,Touat Cheikh Sidi Mohamed Belkebir Airport,27.837601,-0.186414,919.0,AF,DZ,DZ-01,Adrar,yes,DAUA,AZR,,,https://en.wikipedia.org/wiki/Touat_Cheikh_Sidi_Mohamed_Belkebir_Airport,,Algeria
2076,DAUB,medium_airport,Biskra - Mohamed Khider Airport,34.793301,5.73823,289.0,AF,DZ,DZ-07,Biskra,yes,DAUB,BSK,,,https://en.wikipedia.org/wiki/Biskra_Airport,,Algeria
2077,DAUE,medium_airport,El Golea Airport,30.580732,2.861595,1306.0,AF,DZ,DZ-50,El Menia,yes,DAUE,ELG,,,https://en.wikipedia.org/wiki/El_Golea_Airport,,Algeria
2078,DAUG,medium_airport,Noumérat - Moufdi Zakaria Airport,32.384102,3.79411,1512.0,AF,DZ,DZ-47,El Atteuf,yes,DAUG,GHA,,,https://en.wikipedia.org/wiki/Noumerate_Airport,Ghardaïa,Algeria
2079,DAUH,medium_airport,Hassi Messaoud-Oued Irara Krim Belkacem Airport,31.673,6.14044,463.0,AF,DZ,DZ-30,Hassi Messaoud,yes,DAUH,HME,,,https://en.wikipedia.org/wiki/Oued_Irara_Airport,,Algeria
2080,DAUI,medium_airport,In Salah Airport,27.250999,2.51202,896.0,AF,DZ,DZ-57,In Salah,yes,DAUI,INZ,,,https://en.wikipedia.org/wiki/In_Salah_Airport,,Algeria
2081,DAUK,medium_airport,Touggourt Sidi Madhi Airport,33.067799,6.08867,279.0,AF,DZ,DZ-55,Touggourt,yes,DAUK,TGR,,,https://en.wikipedia.org/wiki/Touggourt_Sidi_Madhi_Airport,,Algeria
2082,DAUL,medium_airport,Laghouat - Molay Ahmed Medeghri Airport,33.7644,2.92834,2510.0,AF,DZ,DZ-03,Laghouat,no,DAUL,LOO,,,https://en.wikipedia.org/wiki/L%27Mekrareg_Airport,,Algeria
2083,DAUO,medium_airport,Guemar Airport,33.5113983154,6.77679014206,203.0,AF,DZ,DZ-39,Guemar,yes,DAUO,ELU,,,https://en.wikipedia.org/wiki/Guemar_Airport,,Algeria
2084,DAUT,medium_airport,Timimoun Airport,29.237101,0.276033,1027.0,AF,DZ,DZ-54,Timimoun,yes,DAUT,TMX,,,https://en.wikipedia.org/wiki/Timimoun_Airport,,Algeria
2085,DAUU,medium_airport,Ain Beida Airport,31.9172,5.41278,492.0,AF,DZ,DZ-30,Ouargla,yes,DAUU,OGX,,,https://en.wikipedia.org/wiki/Ain_Beida_Airport,"Ain el Beida, Sedrata Airfield",Algeria
2086,DAUZ,medium_airport,Zarzaitine - In Aménas Airport,28.0515,9.64291,1847.0,AF,DZ,DZ-33,In Aménas,yes,DAUZ,IAM,,,https://en.wikipedia.org/wiki/In_Amenas_Airport,,Algeria
2087,DBBB,medium_airport,Cadjehoun Airport,6.357230186462402,2.384350061416626,19.0,AF,BJ,BJ-AQ,Cotonou,yes,DBBB,COO,,,https://en.wikipedia.org/wiki/Cadjehoun_Airport,,Benin
316519,DBC,medium_airport,Baicheng Chang'an Airport,45.505278,123.019722,480.0,AS,CN,CN-22,Baicheng,yes,ZYBA,DBC,,,https://en.wikipedia.org/wiki/Baicheng_Chang%27an_Airport,,China
2088,DFFD,medium_airport,Ouagadougou Airport,12.3532,-1.51242,1037.0,AF,BF,BF-KAD,Ouagadougou,yes,DFFD,OUA,,,https://en.wikipedia.org/wiki/Ouagadougou_Airport,,Burkina Faso
2089,DFOO,medium_airport,Bobo Dioulasso Airport,11.160099983215332,-4.33096981048584,1511.0,AF,BF,BF-HOU,Bobo Dioulasso,yes,DFOO,BOY,,,https://en.wikipedia.org/wiki/Bobo_Dioulasso_Airport,,Burkina Faso
2090,DGAA,large_airport,Kotoka International Airport,5.605189800262451,-0.1667860001325607,205.0,AF,GH,GH-AA,Accra,yes,DGAA,ACC,,,https://en.wikipedia.org/wiki/Kotoka_International_Airport,,Ghana
2091,DGLE,medium_airport,Tamale Airport,9.55718994140625,-0.8632140159606934,553.0,AF,GH,GH-NP,Tamale,yes,DGLE,TML,,,https://en.wikipedia.org/wiki/Tamale_Airport,,Ghana
2093,DGSI,medium_airport,Kumasi Airport,6.714560031890869,-1.5908199548721311,942.0,AF,GH,GH-AH,Kumasi,yes,DGSI,KMS,,,https://en.wikipedia.org/wiki/Kumasi_Airport,,Ghana
2094,DGSN,medium_airport,Sunyani Airport,7.36183,-2.32876,1014.0,AF,GH,GH-BO,Sunyani,yes,DGSN,NYI,,,https://en.wikipedia.org/wiki/Sunyani_Airport,,Ghana
2095,DGTK,medium_airport,Takoradi Airport,4.896059989929199,-1.7747600078582764,21.0,AF,GH,GH-WP,Sekondi-Takoradi,yes,DGTK,TKD,,,https://en.wikipedia.org/wiki/Takoradi_Airport,,Ghana
2096,DIAP,medium_airport,Félix-Houphouët-Boigny International Airport,5.26139,-3.92629,21.0,AF,CI,CI-AB,Abidjan,yes,DIAP,ABJ,,,https://en.wikipedia.org/wiki/F%C3%A9lix-Houphou%C3%ABt-Boigny_International_Airport,Port Bouët,Côte d'Ivoire
2097,DIBK,medium_airport,Bouaké Airport,7.7388,-5.07367,1230.0,AF,CI,CI-VB,Bouaké,yes,DIBK,BYK,,,https://en.wikipedia.org/wiki/Bouak%C3%A9_Airport,,Côte d'Ivoire
2098,DIDL,medium_airport,Daloa Airport,6.79281,-6.47319,823.0,AF,CI,CI-SM,,no,DIDL,DJO,,,https://en.wikipedia.org/wiki/Daloa_Airport,,Côte d'Ivoire
2099,DIKO,medium_airport,Korhogo Airport,9.38718,-5.55666,1214.0,AF,CI,CI-SV,Korhogo,no,DIKO,HGO,,,https://en.wikipedia.org/wiki/Korhogo_Airport,,Côte d'Ivoire
2100,DIMN,medium_airport,Man Airport,7.27207,-7.58736,1089.0,AF,CI,CI-MG,,no,DIMN,MJC,,,https://en.wikipedia.org/wiki/Man_Airport,,Côte d'Ivoire
2101,DISP,medium_airport,San Pedro Airport,4.74672,-6.66082,26.0,AF,CI,CI-BS,,no,DISP,SPY,,,https://en.wikipedia.org/wiki/San_P%C3%A9dro_Airport,,Côte d'Ivoire
2102,DIYO,medium_airport,Yamoussoukro Airport,6.9031701088,-5.36558008194,699.0,AF,CI,CI-YM,Yamoussoukro,no,DIYO,ASK,,,https://en.wikipedia.org/wiki/Yamoussoukro_Airport,,Côte d'Ivoire
2104,DNAA,large_airport,Nnamdi Azikiwe International Airport,9.00679,7.26317,1123.0,AF,NG,NG-FC,Abuja,yes,DNAA,ABV,,http://www.faannigeria.org/nigeria-airport.php?airport=3,https://en.wikipedia.org/wiki/Nnamdi_Azikiwe_International_Airport,,Nigeria
309668,DNAI,medium_airport,Akwa Ibom International Airport,4.8725,8.093,170.0,AF,NG,NG-AK,Uyo,yes,DNAI,QUO,,http://www.ibomairport.com.ng/,https://en.wikipedia.org/wiki/Akwa_Ibom_Airport,,Nigeria
2105,DNAK,medium_airport,Akure Airport,7.246739864349365,5.3010101318359375,1100.0,AF,NG,NG-ON,Akure,yes,DNAK,AKR,,http://www.faannigeria.org/nigeria-airport.php?airport=21,https://en.wikipedia.org/wiki/Akure_Airport,,Nigeria
300781,DNAS,medium_airport,Asaba International Airport,6.204167,6.665278,305.0,AF,NG,NG-DE,Asaba,no,DNAS,ABB,,,https://en.wikipedia.org/wiki/Asaba_International_Airport,Onitsha,Nigeria
323056,DNBC,medium_airport,Sir Abubakar Tafawa Balewa International Airport,10.482833,9.744,1965.0,AF,NG,NG-BA,Bauchi,yes,DNBC,BCU,,,https://en.wikipedia.org/wiki/Bauchi_State_Airport,Bauchi State Airport,Nigeria
2106,DNBE,medium_airport,Benin Airport,6.316979885101318,5.599500179290772,258.0,AF,NG,NG-ED,Benin,yes,DNBE,BNI,,http://www.faannigeria.org/nigeria-airport.php?airport=22,https://en.wikipedia.org/wiki/Benin_Airport,,Nigeria
2107,DNCA,medium_airport,Margaret Ekpo International Airport,4.976019859313965,8.347200393676758,210.0,AF,NG,NG-CR,Calabar,yes,DNCA,CBQ,,http://www.faannigeria.org/nigeria-airport.php?airport=12,https://en.wikipedia.org/wiki/Margaret_Ekpo_International_Airport,,Nigeria
2108,DNEN,medium_airport,Akanu Ibiam International Airport,6.474269866943359,7.561960220336914,466.0,AF,NG,NG-EN,Enegu,yes,DNEN,ENU,,http://www.faannigeria.org/nigeria-airport.php?airport=11,https://en.wikipedia.org/wiki/Akanu_Ibiam_International_Airport,,Nigeria
2109,DNGU,medium_airport,Gusau Airport,12.1717,6.69611,1520.0,AF,NG,NG-ZA,Gusau,no,DNGU,QUS,,,https://en.wikipedia.org/wiki/Gusau_Airstrip,QUS,Nigeria
2110,DNIB,medium_airport,Ibadan Airport,7.362460136413574,3.97832989692688,725.0,AF,NG,NG-OY,Ibadan,yes,DNIB,IBA,,http://www.faannigeria.org/nigeria-airport.php?airport=7,https://en.wikipedia.org/wiki/Ibadan_Airport,,Nigeria
2111,DNIL,medium_airport,Ilorin International Airport,8.440210342407227,4.493919849395752,1126.0,AF,NG,NG-KW,Ilorin,yes,DNIL,ILR,,http://www.faannigeria.org/nigeria-airport.php?airport=20,https://en.wikipedia.org/wiki/Ilorin_International_Airport,,Nigeria
2112,DNIM,medium_airport,Sam Mbakwe International Airport,5.427060127258301,7.206029891967773,373.0,AF,NG,NG-IM,Owerri,yes,DNIM,QOW,,http://www.faannigeria.org/nigeria-airport.php?airport=17,https://en.wikipedia.org/wiki/Sam_Mbakwe_International_Cargo_Airport,Imo Airport,Nigeria
2113,DNJO,medium_airport,Yakubu Gowon Airport,9.639829635620115,8.869050025939941,4232.0,AF,NG,NG-PL,Jos,yes,DNJO,JOS,,http://www.faannigeria.org/nigeria-airport.php?airport=15,https://en.wikipedia.org/wiki/Yakubu_Gowon_Airport,,Nigeria
2114,DNKA,medium_airport,Kaduna Airport,10.696000099182127,7.320109844207764,2073.0,AF,NG,NG-KD,Kaduna,yes,DNKA,KAD,,http://www.faannigeria.org/nigeria-airport.php?airport=10,https://en.wikipedia.org/wiki/Kaduna_Airport,,Nigeria
2115,DNKN,medium_airport,Mallam Aminu International Airport,12.0476,8.52462,1562.0,AF,NG,NG-KN,Kano,yes,DNKN,KAN,,http://www.faannigeria.org/nigeria-airport.php?airport=2,https://en.wikipedia.org/wiki/Mallam_Aminu_Kano_International_Airport,,Nigeria
2116,DNMA,medium_airport,Maiduguri International Airport,11.855299949645996,13.080900192260742,1099.0,AF,NG,NG-BO,Maiduguri,yes,DNMA,MIU,,http://www.faannigeria.org/nigeria-airport.php?airport=14,https://en.wikipedia.org/wiki/Maiduguri_International_Airport,,Nigeria
2117,DNMK,medium_airport,Makurdi Airport,7.70388,8.61394,371.0,AF,NG,NG-BE,Makurdi,yes,DNMK,MDI,,http://www.faannigeria.org/nigeria-airport.php?airport=23,https://en.wikipedia.org/wiki/Makurdi_Airport,,Nigeria
2118,DNMM,large_airport,Murtala Muhammed International Airport,6.5773701667785645,3.321160078048706,135.0,AF,NG,NG-LA,Lagos,yes,DNMM,LOS,,http://www.faannigeria.org/nigeria-airport.php?airport=1,https://en.wikipedia.org/wiki/Murtala_Mohammed_International_Airport,,Nigeria
2119,DNMN,medium_airport,Minna Airport,9.652170181274414,6.462259769439697,834.0,AF,NG,NG-NI,Minna,no,DNMN,MXJ,,http://www.faannigeria.org/nigeria-airport.php?airport=19,https://en.wikipedia.org/wiki/Minna_Airport,,Nigeria
2120,DNPO,medium_airport,Port Harcourt International Airport,5.0154900550842285,6.94959020614624,87.0,AF,NG,NG-RI,Port Harcourt,yes,DNPO,PHC,,http://www.faannigeria.org/nigeria-airport.php?airport=4,https://en.wikipedia.org/wiki/Port_Harcourt_International_Airport,,Nigeria
2121,DNSO,medium_airport,Sadiq Abubakar III International Airport,12.916299819946287,5.207190036773682,1010.0,AF,NG,NG-SO,Sokoto,yes,DNSO,SKO,,http://www.faannigeria.org/nigeria-airport.php?airport=13,https://en.wikipedia.org/wiki/Sadiq_Abubakar_III_International_Airport,,Nigeria
2122,DNYO,medium_airport,Yola Airport,9.257550239562988,12.430399894714355,599.0,AF,NG,NG-AD,Yola,yes,DNYO,YOL,,http://www.faannigeria.org/nigeria-airport.php?airport=16,https://en.wikipedia.org/wiki/Yola_Airport,,Nigeria
2123,DNZA,medium_airport,Zaria Airport,11.1302,7.68581,2170.0,AF,NG,NG-KD,Zaria,no,DNZA,ZAR,,http://www.faannigeria.org/nigeria-airport.php?airport=24,https://en.wikipedia.org/wiki/Zaria_Airport,,Nigeria
2124,DRRM,medium_airport,Maradi Airport,13.5025,7.12675,1240.0,AF,NE,NE-4,Maradi,no,DRRM,MFQ,,,https://en.wikipedia.org/wiki/Maradi_Airport,,Niger
2125,DRRN,large_airport,Diori Hamani International Airport,13.4815,2.18361,732.0,AF,NE,NE-8,Niamey,yes,DRRN,NIM,,,https://en.wikipedia.org/wiki/Diori_Hamani_International_Airport,,Niger
2126,DRRT,medium_airport,Tahoua Airport,14.8757,5.26536,1266.0,AF,NE,NE-5,Tahoua,no,DRRT,THZ,,,https://en.wikipedia.org/wiki/Tahoua_Airport,,Niger
2127,DRZA,medium_airport,Mano Dayak International Airport,16.965999603271484,8.000109672546387,1657.0,AF,NE,NE-1,Agadez,yes,DRZA,AJY,,,https://en.wikipedia.org/wiki/Mano_Dayak_International_Airport,,Niger
2130,DRZR,medium_airport,Zinder Airport,13.779000282287598,8.983759880065918,1516.0,AF,NE,NE-7,Zinder,yes,DRZR,ZND,,,https://en.wikipedia.org/wiki/Zinder_Airport,,Niger
2131,DTKA,medium_airport,Tabarka-Aïn Draham International Airport,36.98,8.87694,230.0,AF,TN,TN-32,Tabarka,yes,DTKA,TBJ,,,https://en.wikipedia.org/wiki/Tabarka%E2%80%93A%C3%AFn_Draham_International_Airport,Tabarka 7 Novembre Airport,Tunisia
2132,DTMB,medium_airport,Monastir Habib Bourguiba International Airport,35.75809860229492,10.75469970703125,9.0,AF,TN,TN-52,Monastir,yes,DTMB,MIR,,,https://en.wikipedia.org/wiki/Habib_Bourguiba_International_Airport,,Tunisia
2133,DTTA,large_airport,Tunis Carthage International Airport,36.851002,10.2272,22.0,AF,TN,TN-11,Tunis,yes,DTTA,TUN,,http://www.oaca.nat.tn/english/div_horizontal_tunis_airport_eng.htm,https://en.wikipedia.org/wiki/Tunis-Carthage_International_Airport,"Aéroport international de Tunis-Carthage, مطار تونس قرطاج الدولي",Tunisia
2134,DTTB,medium_airport,Bizerte Sidi Ahmed Air Base,37.242356,9.787016,20.0,AF,TN,TN-23,Borj Challouf,no,DTTB,,,,https://en.wikipedia.org/wiki/Bizerte-Sidi_Ahmed_Air_Base,QIZ,Tunisia
2135,DTTD,medium_airport,Remada Air Base,32.306198,10.3821,1004.0,AF,TN,TN-83,Remada,no,DTTD,,,,https://en.wikipedia.org/wiki/Remada_Air_Base,,Tunisia
2136,DTTF,medium_airport,Gafsa Ksar International Airport,34.422000885009766,8.822500228881836,1060.0,AF,TN,TN-71,Gafsa,yes,DTTF,GAF,,,https://en.wikipedia.org/wiki/Gafsa_-_Ksar_International_Airport,,Tunisia
2137,DTTG,medium_airport,Gabès Matmata International Airport,33.733691,9.91941,407.0,AF,TN,TN-81,Gabès,yes,DTTG,GAE,,,https://en.wikipedia.org/wiki/Gab%C3%A8s_-_Matmata_International_Airport,,Tunisia
2139,DTTJ,medium_airport,Djerba Zarzis International Airport,33.875,10.7755,19.0,AF,TN,TN-82,Mellita,yes,DTTJ,DJE,,,https://en.wikipedia.org/wiki/Djerba-Zarzis_Airport,,Tunisia
2140,DTTR,medium_airport,El Borma Airport,31.7043,9.25462,827.0,AF,TN,TN-83,El Borma,no,DTTR,EBM,,,https://en.wikipedia.org/wiki/El_Borma_Airport,,Tunisia
2141,DTTX,medium_airport,Sfax Thyna International Airport,34.71799850463867,10.690999984741213,85.0,AF,TN,TN-61,Sfax,yes,DTTX,SFA,,,https://en.wikipedia.org/wiki/Thyna_Airport,,Tunisia
2142,DTTZ,medium_airport,Tozeur Nefta International Airport,33.939701080322266,8.110560417175293,287.0,AF,TN,TN-72,Tozeur,yes,DTTZ,TOE,,,https://en.wikipedia.org/wiki/Nefta_Airport,,Tunisia
2143,DXNG,medium_airport,Niamtougou International Airport,9.767330169677734,1.091249942779541,1515.0,AF,TG,TG-K,Niamtougou,no,DXNG,LRL,,,https://en.wikipedia.org/wiki/Niamtougou_International_Airport,,Togo
2144,DXXX,medium_airport,Lomé–Tokoin International Airport,6.16561,1.25451,72.0,AF,TG,TG-M,Lomé,yes,DXXX,LFW,,,https://en.wikipedia.org/wiki/Lom%C3%A9%E2%80%93Tokoin_International_Airport,Gnassingbe Eyadema International Airport,Togo
2152,EBAW,medium_airport,Antwerp International Airport (Deurne),51.190667,4.463153,39.0,EU,BE,BE-VAN,Antwerp,yes,EBAW,ANR,,http://www.antwerp-airport.be/,https://en.wikipedia.org/wiki/Antwerp_International_Airport,,Belgium
2153,EBBE,medium_airport,Beauvechain Air Base,50.758598,4.76833,370.0,EU,BE,BE-WBR,Beauvechain,no,EBBE,,,,https://en.wikipedia.org/wiki/Beauvechain_Air_Base,Le Culot,Belgium
2154,EBBL,medium_airport,Kleine Brogel Air Base,51.168301,5.47,200.0,EU,BE,BE-VLI,Kleine Brogel,no,EBBL,,,,https://en.wikipedia.org/wiki/Kleine_Brogel_Air_Base,,Belgium
2155,EBBR,large_airport,Brussels Airport,50.901402,4.48444,175.0,EU,BE,BE-VBR,Zaventem,yes,EBBR,BRU,,http://www.brusselsairport.be/en/,https://en.wikipedia.org/wiki/Brussels_Airport,"Brussels National, Zaventem, EBMB",Belgium
2157,EBCI,medium_airport,Brussels South Charleroi Airport,50.460982,4.457158,614.0,EU,BE,BE-WHT,Charleroi,yes,EBCI,CRL,,http://www.charleroi-airport.com/doc.php?nd=o29&tid=29&lg=2&docid=1&site=1,https://en.wikipedia.org/wiki/Brussels_South_Charleroi_Airport,Gosselies Airport,Belgium
2158,EBCV,medium_airport,Chièvres Air Base,50.575801849365234,3.8310000896453857,194.0,EU,BE,BE-WHT,Chièvres,no,EBCV,,,,https://en.wikipedia.org/wiki/Chievres_Air_Base,,Belgium
2159,EBFN,medium_airport,Koksijde Air Base,51.090302,2.65278,20.0,EU,BE,BE-VWV,Koksijde,no,EBFN,,,,,Coxyde,Belgium
2160,EBFS,medium_airport,Florennes Air Base,50.2433013916,4.64583015442,935.0,EU,BE,BE-WNA,Florennes,no,EBFS,,,,https://en.wikipedia.org/wiki/Florennes_Air_Base,,Belgium
2161,EBKT,medium_airport,Flanders International Airport Kortrijk-Wevelgem,50.818878,3.209551,55.0,EU,BE,BE-VWV,Wevelgem,no,EBKT,KJK,,http://www.kortrijkairport.be,https://en.wikipedia.org/wiki/Flanders_International_Airport,"Kortrijk, Courtrai",Belgium
2162,EBLG,medium_airport,Liège Airport,50.638574,5.443897,659.0,EU,BE,BE-WLG,Grâce-Hollogne,yes,EBLG,LGG,,http://www.liegeairport.be/,https://en.wikipedia.org/wiki/Li%C3%A8ge_Airport,Bierset,Belgium
2163,EBOS,medium_airport,Oostende-Brugge International Airport,51.1998,2.874673,13.0,EU,BE,BE-VWV,Oostende,yes,EBOS,OST,,http://www.ost.aero/,https://en.wikipedia.org/wiki/Ostend-Bruges_International_Airport,Ostend-Bruges International Airport,Belgium
2184,EDAC,medium_airport,Leipzig–Altenburg Airport,50.981945,12.506389,640.0,EU,DE,DE-TH,Nobitz,no,EDAC,AOC,,http://www.leipzig-altenburg-airport.de/,https://en.wikipedia.org/wiki/Leipzig%E2%80%93Altenburg_Airport,Altenburg-Nobitz,Germany
2187,EDAH,medium_airport,Heringsdorf Airport,53.8787002563,14.152299881,93.0,EU,DE,DE-MV,Heringsdorf,yes,EDAH,HDF,,,https://en.wikipedia.org/wiki/Heringsdorf_Airport,,Germany
2743,EDBN,medium_airport,Neubrandenburg Airport,53.6022,13.306,228.0,EU,DE,DE-MV,Neubrandenburg,no,EDBN,FNB,,http://www.flughafen-neubrandenburg.de/,https://en.wikipedia.org/wiki/Neubrandenburg_Airport,ETNU,Germany
2200,EDBR,medium_airport,Rothenburg/Görlitz Airfield,51.363335,14.95,518.0,EU,DE,DE-SN,Rothenburg/Oberlausitz,no,EDBR,,,http://www.flugplatz-rothenburg-goerlitz.de/,http://de.wikipedia.org/wiki/Flugplatz_Rothenburg/G%C3%B6rlitz,,Germany
301881,EDDB,large_airport,Berlin Brandenburg Airport,52.362247,13.500672,157.0,EU,DE,DE-BR,Berlin,yes,EDDB,BER,,https://ber.berlin-airport.de/,https://en.wikipedia.org/wiki/Berlin_Brandenburg_Airport,,Germany
2210,EDDC,medium_airport,Dresden Airport,51.134123,13.767831,755.0,EU,DE,DE-SN,Dresden,yes,EDDC,DRS,,http://www.dresden-airport.de/en/index.html,https://en.wikipedia.org/wiki/Dresden_Airport,,Germany
2211,EDDE,medium_airport,Erfurt-Weimar Airport,50.979801,10.9581,1036.0,EU,DE,DE-TH,Erfurt,yes,EDDE,ERF,,http://www.airport-erfurt.de/,https://en.wikipedia.org/wiki/Erfurt_Airport,Flughafen Erfurt-Weimar,Germany
2212,EDDF,large_airport,Frankfurt Airport,50.030241,8.561096,364.0,EU,DE,DE-HE,Frankfurt am Main,yes,EDDF,FRA,,https://www.frankfurt-airport.de/,https://en.wikipedia.org/wiki/Frankfurt_Airport,"EDAF, Frankfurt am Main, Frankfurt Main, Rhein-Main Air Base, Zeppelinheim",Germany
2213,EDDG,medium_airport,Münster Osnabrück Airport,52.134602,7.68483,160.0,EU,DE,DE-NW,Greven,yes,EDDG,FMO,,https://www.fmo.de/,https://en.wikipedia.org/wiki/M%C3%BCnster_Osnabr%C3%BCck_International_Airport,,Germany
2214,EDDH,large_airport,Hamburg Helmut Schmidt Airport,53.630402,9.98823,53.0,EU,DE,DE-HH,Hamburg,yes,EDDH,HAM,,https://www.hamburg-airport.de/en/,https://en.wikipedia.org/wiki/Hamburg_Airport,Hamburg-Fuhlsbüttel Airport,Germany
2216,EDDK,large_airport,Cologne Bonn Airport,50.865898,7.14274,302.0,EU,DE,DE-NW,Köln (Cologne),yes,EDDK,CGN,,http://www.koeln-bonn-airport.de/en/,https://en.wikipedia.org/wiki/Cologne_Bonn_Airport,Köln,Germany
2217,EDDL,large_airport,Düsseldorf Airport,51.289501,6.76678,147.0,EU,DE,DE-NW,Düsseldorf,yes,EDDL,DUS,,http://www.dus.com/dus_en/,https://en.wikipedia.org/wiki/D%C3%BCsseldorf_Airport,,Germany
2218,EDDM,large_airport,Munich Airport,48.353802,11.7861,1487.0,EU,DE,DE-BY,Munich,yes,EDDM,MUC,,http://www.munich-airport.com/,https://en.wikipedia.org/wiki/Munich_Airport,"Franz Josef Strauss Airport, Flughafen München Franz Josef Strauß",Germany
2219,EDDN,large_airport,Nuremberg Airport,49.498699,11.078056,1046.0,EU,DE,DE-BY,Nuremberg,yes,EDDN,NUE,,https://www.airport-nuernberg.de/english,https://en.wikipedia.org/wiki/Nuremberg_Airport,Nürnberg,Germany
2220,EDDP,large_airport,Leipzig/Halle Airport,51.420657,12.232705,465.0,EU,DE,DE-SN,Schkeuditz,yes,EDDP,LEJ,,https://www.mdf-ag.com/,https://en.wikipedia.org/wiki/Leipzig/Halle_Airport,Schkeuditz Airport,Germany
2221,EDDR,medium_airport,Saarbrücken Airport,49.2145996094,7.10950994492,1058.0,EU,DE,DE-SL,Saarbrücken,yes,EDDR,SCN,,http://www.flughafen-saarbruecken.de/,https://en.wikipedia.org/wiki/Saarbr%C3%BCcken_Airport,,Germany
2222,EDDS,large_airport,Stuttgart Airport,48.689899,9.22196,1276.0,EU,DE,DE-BW,Stuttgart,yes,EDDS,STR,,http://www.flughafen-stuttgart.de/,https://en.wikipedia.org/wiki/Stuttgart_Airport,,Germany
2224,EDDV,large_airport,Hannover Airport,52.461102,9.68508,183.0,EU,DE,DE-NI,Hannover,yes,EDDV,HAJ,,https://www.hannover-airport.de,https://en.wikipedia.org/wiki/Hanover/Langenhagen_International_Airport,,Germany
2225,EDDW,medium_airport,Bremen Airport,53.046786,8.78932,14.0,EU,DE,DE-HB,Bremen,yes,EDDW,BRE,,https://www.bremen-airport.com,https://en.wikipedia.org/wiki/Bremen_Airport,,Germany
2226,EDFE,medium_airport,Frankfurt-Egelsbach Airport,49.96,8.643043,384.0,EU,DE,DE-HE,Egelsbach,no,EDFE,,,http://www.egelsbach-airport.com/,https://en.wikipedia.org/wiki/Frankfurt_Egelsbach_Airport,,Germany
2227,EDFH,medium_airport,Frankfurt-Hahn Airport,49.9487,7.26389,1649.0,EU,DE,DE-RP,Frankfurt am Main (Lautzenhausen),yes,EDFH,HHN,,,https://en.wikipedia.org/wiki/Frankfurt-Hahn_Airport,,Germany
2228,EDFM,medium_airport,Mannheim-City Airport,49.473057,8.514167,308.0,EU,DE,DE-BW,Mannheim,yes,EDFM,MHG,,http://www.flugplatz-mannheim.de/,https://en.wikipedia.org/wiki/Mannheim_City_Airport,Mannheim,Germany
2231,EDFZ,medium_airport,Mainz-Finthen Airfield,49.967499,8.147222,760.0,EU,DE,DE-RP,Mainz,no,EDFZ,,,https://www.lfv-mainz.com/,https://en.wikipedia.org/wiki/Mainz_Finthen_Airport,QMZ,Germany
2232,EDGE,medium_airport,Eisenach-Kindel Airport,50.991604,10.47973,1112.0,EU,DE,DE-TH,Hörselberg-Hainich,no,EDGE,EIB,,http://www.flugplatz-eisenach.de/,http://de.wikipedia.org/wiki/Flugplatz_Eisenach-Kindel,Flugplatz Eisenach-Kindel,Germany
2233,EDGS,medium_airport,Siegerland Airport,50.707699,8.08297,1966.0,EU,DE,DE-NW,Burbach,no,EDGS,SGE,,,https://en.wikipedia.org/wiki/Siegerland_Airport,,Germany
2234,EDHI,medium_airport,Hamburg-Finkenwerder Airport,53.5352783203125,9.835556030273438,23.0,EU,DE,DE-HH,Hamburg,no,EDHI,XFW,,,https://en.wikipedia.org/wiki/Hamburg_Finkenwerder_Airport,,Germany
2235,EDHK,medium_airport,Kiel-Holtenau Airport,54.379444,10.145278,102.0,EU,DE,DE-SH,Kiel,no,EDHK,KEL,,,https://en.wikipedia.org/wiki/Kiel-Holtenau_airport,,Germany
2236,EDHL,medium_airport,Lübeck Blankensee Airport,53.8054008484,10.7192001343,53.0,EU,DE,DE-SH,Lübeck,yes,EDHL,LBC,,,https://en.wikipedia.org/wiki/L%C3%BCbeck_Airport,,Germany
2237,EDJA,medium_airport,Memmingen Allgau Airport,47.9888000488,10.2395000458,2077.0,EU,DE,DE-BY,Memmingen,yes,EDJA,FMM,,,https://en.wikipedia.org/wiki/Memmingen_Airport,,Germany
2243,EDLN,medium_airport,Mönchengladbach Airport,51.230278,6.504444,125.0,EU,DE,DE-NW,Mönchengladbach,no,EDLN,MGL,,,https://en.wikipedia.org/wiki/D%C3%BCsseldorf-M%C3%B6nchengladbach_Airport,,Germany
